did,dataset,original_did,name,province,city,county,town,village,group,subgroup,cluster,subcluster,spot,latitude,longitude
0,CCR,027,北京,,,,,,官话,北京官话,京师片,,北京,39.904214,116.407413
1,CCR,028,濟南,,,,,,官话,,石济片,聊泰小片,济南,36.665282,116.994917
2,CCR,029,廣靈,,,,,,官话,,广灵片,,广灵,39.760446,114.28273
3,CCR,030,宿州市,,,,,,官话,中原官话,郑曹片,,宿州市,33.639394,116.985301
4,CCR,031,渦陽,,,,,,官话,中原官话,郑曹片,,涡阳,33.505866,116.219806
5,CCR,032,臨泉,,,,,,官话,中原官话,郑曹片,,临泉,33.064578,115.257942
6,CCR,033,穎上,,,,,,官话,中原官话,蔡鲁片,,颖上,32.642989,116.2496
7,CCR,034,蕭縣,,,,,,官话,中原官话,洛徐片,,萧县,34.188728,116.94729
8,CCR,035,蚌埠市,,,,,,官话,中原官话,信蚌片,,蚌埠市,32.916287,117.389719
9,CCR,036,鳳陽,,,,,,官话,中原官话,信蚌片,,凤阳,32.866117,117.56115
10,CCR,037,壽縣,,,,,,官话,中原官话,信蚌片,,寿县,32.57345,116.78716
11,CCR,038,霍州(霍縣),,,,,,官话,中原官话,汾河片,平阳小片,霍州(霍县),36.568931,111.755398
12,CCR,039,臨汾,,,,,,官话,中原官话,汾河片,平阳小片,临汾,36.088067,111.51888
13,CCR,040,聞喜,,,,,,官话,中原官话,汾河片,平阳小片,闻喜,35.356591,111.224658
14,CCR,042,新絳,,,,,,官话,中原官话,汾河片,绛州小片,新绛,35.616246,111.224667
15,CCR,041,吉縣,,,,,,官话,中原官话,汾河片,解州小片,吉县,36.098188,110.681763
16,CCR,043,運城,,,,,,官话,中原官话,汾河片,解州小片,运城,35.026372,111.007324
17,CCR,044,永濟,,,,,,官话,中原官话,汾河片,解州小片,永济,34.86705,110.447549
18,CCR,045,萬榮,,,,,,官话,中原官话,汾河片,解州小片,万荣,23.72457,121.308409
19,CCR,046,西安,,,,,,官话,中原官话,关中片,,西安,34.264987,108.944269
20,CCR,047,武昌,,,,,,官话,西南官话,武天片,,武昌,30.553899,114.315897
21,CCR,048,桂林(臨桂),,,,,,官话,西南官话,桂柳片,,桂林(临桂),25.238657,110.212557
22,CCR,049,柳州(雒容),,,,,,官话,西南官话,桂柳片,,柳州(雒容),24.407662,109.618221
23,CCR,050,懷遠,,,,,,官话,江淮官话,洪巢片,,怀远,32.970053,117.205097
24,CCR,051,天長,,,,,,官话,江淮官话,洪巢片,,天长,32.689438,119.003686
25,CCR,052,淮南,,,,,,官话,江淮官话,洪巢片,,淮南,32.625478,116.999933
26,CCR,053,定遠,,,,,,官话,江淮官话,洪巢片,,定远,32.525546,117.682952
27,CCR,054,滁縣(滁州),,,,,,官话,江淮官话,洪巢片,,滁县(滁州),32.301556,118.317107
28,CCR,055,滁州,,,,,,官话,江淮官话,洪巢片,,滁州,32.301556,118.317107
29,CCR,056,全椒,,,,,,官话,江淮官话,洪巢片,,全椒,32.085271,118.273321
30,CCR,057,合肥,,,,,,官话,江淮官话,洪巢片,,合肥,31.821448,117.227271
31,CCR,058,六安,,,,,,官话,江淮官话,洪巢片,,六安,31.745011,116.505693
32,CCR,059,含山,,,,,,官话,江淮官话,洪巢片,,含山,31.71774,118.108693
33,CCR,060,巢縣(巢湖),,,,,,官话,江淮官话,洪巢片,,巢县(巢湖),31.597061,117.85464
34,CCR,061,當塗,,,,,,官话,江淮官话,洪巢片,,当涂,31.571171,118.497727
35,CCR,062,舒城,,,,,,官话,江淮官话,洪巢片,,舒城,31.462189,116.948671
36,CCR,063,蕪湖,,,,,,官话,江淮官话,洪巢片,,芜湖,31.33879,118.385156
37,CCR,064,無為,,,,,,官话,江淮官话,洪巢片,,无为,31.303155,117.902689
38,CCR,065,桐城,,,,,,官话,江淮官话,洪巢片,,桐城,31.05207,116.950782
39,CCR,066,桐城,,,,,,官话,江淮官话,洪巢片,,桐城(安徽省志),31.05207,116.950782
40,CCR,067,宣城,,,,,,官话,江淮官话,洪巢片,,宣城,30.940718,118.758816
41,CCR,068,樅陽,,,,,,官话,江淮官话,洪巢片,,枞阳,30.700185,117.219963
42,CCR,069,貴池,,,,,,官话,江淮官话,洪巢片,,贵池,30.652838,117.487225
43,CCR,070,青陽,,,,,,官话,江淮官话,洪巢片,,青阳,30.63917,117.847354
44,CCR,071,安慶,,,,,,官话,江淮官话,洪巢片,,安庆,30.524895,117.056857
45,CCR,072,婁煩,,,,,,晋语,,并州片,,娄烦,38.06725,111.797435
46,CCR,073,太原,,,,,,晋语,,并州片,,太原,37.870662,112.550619
47,CCR,074,清徐,,,,,,晋语,,并州片,,清徐,37.607594,112.358501
48,CCR,075,文水,,,,,,晋语,,并州片,,文水,37.437282,112.027285
49,CCR,076,太谷,,,,,,晋语,,并州片,,太谷,37.421308,112.551357
50,CCR,077,祁縣,,,,,,晋语,,并州片,,祁县,37.358442,112.335424
51,CCR,078,平遙,,,,,,晋语,,并州片,,平遥,37.189856,112.176266
52,CCR,079,孝義,,,,,,晋语,,并州片,,孝义,37.146405,111.778994
53,CCR,080,臨縣,,,,,,晋语,,吕梁片,汾州小片,临县,37.950758,110.992094
54,CCR,081,離石,,,,,,晋语,,吕梁片,汾州小片,离石,37.517704,111.150591
55,CCR,082,汾陽,,,,,,晋语,,吕梁片,汾州小片,汾阳,37.265454,111.787759
56,CCR,083,嵐縣,,,,,,晋语,,吕梁片,兴隰小片,岚县,38.279455,111.671841
57,CCR,084,石樓,,,,,,晋语,,吕梁片,兴隰小片,石楼,36.998494,110.834505
58,CCR,085,隰縣,,,,,,晋语,,吕梁片,兴隰小片,隰县,36.693355,110.940658
59,CCR,086,汾西,,,,,,晋语,,吕梁片,兴隰小片,汾西,36.652855,111.563951
60,CCR,087,沁縣,,,,,,晋语,,上党片,,沁县,36.756146,112.699155
61,CCR,088,平順,,,,,,晋语,,上党片,,平顺,36.200001,113.436112
62,CCR,089,長治,,,,,,晋语,,上党片,,长治,36.195386,113.116255
63,CCR,090,長子,,,,,,晋语,,上党片,,长子,36.122334,112.8779
64,CCR,091,高平,,,,,,晋语,,上党片,,高平,35.79799,112.923941
65,CCR,092,陵川,,,,,,晋语,,上党片,,陵川,35.775685,113.280688
66,CCR,093,朔州,,,,,,晋语,,五台片,,朔州,39.331149,112.432714
67,CCR,094,代縣,,,,,,晋语,,五台片,,代县,39.0669,112.960258
68,CCR,095,五寨,,,,,,晋语,,五台片,,五寨,38.9111,111.846825
69,CCR,096,五台,,,,,,晋语,,五台片,,五台,38.728315,113.255306
70,CCR,097,忻州,,,,,,晋语,,五台片,,忻州,38.416364,112.734269
71,CCR,098,天鎮,,,,,,晋语,,大包片,,天镇,40.420386,114.090861
72,CCR,099,大同,,,,,,晋语,,大包片,,大同,40.076816,113.300126
73,CCR,100,山陰,,,,,,晋语,,大包片,,山阴,39.526227,112.8166
74,CCR,101,平定,,,,,,晋语,,大包片,,平定,37.804296,113.629539
75,CCR,102,和順,,,,,,晋语,,大包片,,和顺,37.328984,113.570012
76,CCR,103,晉城,,,,,,晋语,,邯新片,获济小片,晋城,35.49087,112.851768
77,CCR,104,陽城,,,,,,晋语,,邯新片,获济小片,阳城,35.486029,112.414738
78,CCR,105,丹陽後巷童家橋,,,,,,吴语,,太湖片,毗陵小片,丹阳后巷童家桥,32.089303,119.788092
79,CCR,106,靖江,,,,,,吴语,,太湖片,毗陵小片,靖江,32.014818,120.27449
80,CCR,107,丹陽,,,,,,吴语,,太湖片,毗陵小片,丹阳,31.991159,119.57534
81,CCR,108,江陰,,,,,,吴语,,太湖片,毗陵小片,江阴,31.920673,120.284946
82,CCR,109,常州,,,,,,吴语,,太湖片,毗陵小片,常州,31.810077,119.974454
83,CCR,110,金壇西崗,,,,,,吴语,,太湖片,毗陵小片,金坛西岗,31.698545,119.480333
84,CCR,111,溧陽,,,,,,吴语,,太湖片,毗陵小片,溧阳,31.416911,119.484211
85,CCR,112,宜興,,,,,,吴语,,太湖片,毗陵小片,宜兴,31.338638,119.822282
86,CCR,113,常熟,,,,,,吴语,,太湖片,苏沪嘉小片,常熟,31.653584,120.752507
87,CCR,114,無錫,,,,,,吴语,,太湖片,苏沪嘉小片,无锡,31.566145,120.303027
88,CCR,115,寶山霜草墩,,,,,,吴语,,太湖片,苏沪嘉小片,宝山霜草墩,31.488899,121.311327
89,CCR,116,寶山羅店,,,,,,吴语,,太湖片,苏沪嘉小片,宝山罗店,31.41313,121.342353
90,CCR,117,崑山,,,,,,吴语,,太湖片,苏沪嘉小片,昆山,31.384913,120.98115
91,CCR,118,蘇州,,,,,,吴语,,太湖片,苏沪嘉小片,苏州,31.298886,120.585316
92,CCR,119,蘇州,,,,,,吴语,,太湖片,苏沪嘉小片,苏州(当代吴语),31.298886,120.585316
93,CCR,120,上海,,,,,,吴语,,太湖片,苏沪嘉小片,上海,31.230393,121.473704
94,CCR,121,南匯周浦,,,,,,吴语,,太湖片,苏沪嘉小片,南汇周浦,31.115894,121.57421
95,CCR,122,松江,,,,,,吴语,,太湖片,苏沪嘉小片,松江,31.032243,121.227747
96,CCR,123,吳江黎里,,,,,,吴语,,太湖片,苏沪嘉小片,吴江黎里,30.989207,120.710078
97,CCR,124,吳江盛澤,,,,,,吴语,,太湖片,苏沪嘉小片,吴江盛泽,30.901594,120.661136
98,CCR,125,嘉興,,,,,,吴语,,太湖片,苏沪嘉小片,嘉兴,30.753924,120.758543
99,CCR,126,上海(三林塘),,,,,,吴语,,太湖片,苏沪嘉小片,上海(三林塘),31.143023,121.510793
100,CCR,127,湖州雙林,,,,,,吴语,,太湖片,苕溪小片,湖州双林,30.781701,120.324766
101,CCR,128,杭州,,,,,,吴语,,太湖片,杭州小片,杭州,30.274089,120.155069
102,CCR,129,餘姚,,,,,,吴语,,太湖片,临绍小片,余姚,30.037197,121.154629
103,CCR,130,紹興,,,,,,吴语,,太湖片,临绍小片,绍兴,29.995762,120.586109
104,CCR,131,諸暨王家井,,,,,,吴语,,太湖片,临绍小片,诸暨王家井,29.63307,120.213918
105,CCR,132,嵊縣崇仁,,,,,,吴语,,太湖片,临绍小片,嵊县崇仁,29.604375,120.707259
106,CCR,133,嵊縣太平,,,,,,吴语,,太湖片,临绍小片,嵊县太平,29.463925,120.598984
107,CCR,134,寧波,,,,,,吴语,,太湖片,甬江小片,宁波,29.868336,121.54399
108,CCR,135,黃岩,,,,,,吴语,,台州片,,黄岩,28.650206,121.261625
109,CCR,136,溫州,,,,,,吴语,,瓯江片,,温州,27.994267,120.699367
110,CCR,137,金華,,,,,,吴语,,婺州片,,金华,29.079164,119.647421
111,CCR,138,永康,,,,,,吴语,,婺州片,,永康,28.888782,120.047394
112,CCR,139,雲和,,,,,,吴语,,处衢片,处州小片,云和,28.1158,119.573404
113,CCR,140,開化,,,,,,吴语,,处衢片,龙衢小片,开化,29.137337,118.415495
114,CCR,141,龍游,,,,,,吴语,,处衢片,龙衢小片,龙游,29.028341,119.172355
115,CCR,142,衢州,,,,,,吴语,,处衢片,龙衢小片,衢州,28.93581,118.874375
116,CCR,143,常山,,,,,,吴语,,处衢片,龙衢小片,常山,28.901343,118.511287
117,CCR,144,江山(江山市),,,,,,吴语,,处衢片,龙衢小片,江山(江山市),28.737245,118.626636
118,CCR,145,玉山,,,,,,吴语,,处衢片,龙衢小片,玉山,28.682055,118.245124
119,CCR,146,遂昌,,,,,,吴语,,处衢片,龙衢小片,遂昌,28.592044,119.276252
120,CCR,147,廣豐(永豐鎮),,,,,,吴语,,处衢片,龙衢小片,广丰(永丰镇),28.439,118.192
121,CCR,148,浦城(南浦鎮城關話),,,,,,吴语,,处衢片,龙衢小片,浦城(南浦镇城关话),27.917432,118.535146
122,CCR,149,慶元,,,,,,吴语,,处衢片,龙衢小片,庆元,27.619226,119.062512
123,CCR,150,宣州市裘公鄉,,,,,,吴语,,宣州片,铜泾小片,宣州市裘公乡,31.189111,118.696898
124,CCR,151,蕪湖縣,,,,,,吴语,,宣州片,铜泾小片,芜湖县,31.134807,118.576121
125,CCR,152,繁昌,,,,,,吴语,,宣州片,铜泾小片,繁昌,31.08294,118.199483
126,CCR,153,銅陵縣,,,,,,吴语,,宣州片,铜泾小片,铜陵县,30.94453,117.810841
127,CCR,154,南陵(仙坊話),,,,,,吴语,,宣州片,铜泾小片,南陵(仙坊话),30.91493,118.33426
128,CCR,155,涇縣,,,,,,吴语,,宣州片,铜泾小片,泾县,30.690538,118.406438
129,CCR,156,貴池市茅坦鄉,,,,,,吴语,,宣州片,太高小片,贵池市茅坦乡,30.702784,117.777988
130,CCR,157,寧國市莊村鄉,,,,,,吴语,,宣州片,太高小片,宁国市庄村乡,30.546943,119.18625
131,CCR,158,貴池市灌口鄉,,,,,,吴语,,宣州片,太高小片,贵池市灌口乡,30.419968,117.386866
132,CCR,159,寧國市南極鄉,,,,,,吴语,,宣州片,太高小片,宁国市南极乡,30.396603,119.075013
133,CCR,160,黃山區甘棠鎮,,,,,,吴语,,宣州片,太高小片,黄山区甘棠镇,30.295363,118.136363
134,CCR,161,石台,,,,,,吴语,,宣州片,石陵小片,石台,30.210169,117.486511
135,CCR,162,旌德,,,,,,徽语,,绩歙片,,旌德(安徽省志),30.28635,118.540487
136,CCR,163,績溪,,,,,,徽语,,绩歙片,,绩溪(安徽省志),30.070866,118.59568
137,CCR,164,黃山(湯口),,,,,,徽语,,休黟片,,黄山(汤口)(安徽省志),30.078581,118.191097
138,CCR,165,黟縣,,,,,,徽语,,休黟片,,黟县(安徽省志),29.924811,117.938262
139,CCR,166,祁門,,,,,,徽语,,休黟片,,祁门(安徽省志),29.854054,117.717386
140,CCR,167,屯溪,,,,,,徽语,,休黟片,,屯溪(安徽省志),29.71139,118.333723
141,CCR,168,湖口,,,,,,赣语,,昌靖片,,湖口,29.73944,116.220266
142,CCR,169,星子,,,,,,赣语,,昌靖片,,星子,29.448037,116.044893
143,CCR,170,都昌,,,,,,赣语,,昌靖片,,都昌,29.273194,116.204099
144,CCR,171,修水,,,,,,赣语,,昌靖片,,修水,29.025707,114.547356
145,CCR,172,永修,,,,,,赣语,,昌靖片,,永修,29.021824,115.809111
146,CCR,173,平江(南江),,,,,,赣语,,昌靖片,,平江(南江),28.971453,113.746311
147,CCR,174,安義,,,,,,赣语,,昌靖片,,安义,28.844429,115.549199
148,CCR,175,奉新,,,,,,赣语,,昌靖片,,奉新,28.700806,115.384904
149,CCR,176,南昌,,,,,,赣语,,昌靖片,,南昌,28.68316,115.858089
150,CCR,177,高安,,,,,,赣语,,昌靖片,,高安,28.417261,115.375618
151,CCR,178,宜豐,,,,,,赣语,,宜浏片,,宜丰,28.393613,114.803542
152,CCR,179,上高,,,,,,赣语,,宜浏片,,上高,28.232827,114.924494
153,CCR,180,萬載,,,,,,赣语,,宜浏片,,万载,28.10455,114.447551
154,CCR,181,新余(沙土),,,,,,赣语,,宜浏片,,新余(沙土),27.819984,114.937489
155,CCR,182,醴陵(白兔潭),,,,,,赣语,,宜浏片,,醴陵(白兔潭),27.792026,113.670777
156,CCR,183,萍鄉,,,,,,赣语,,宜浏片,,萍乡,27.622865,113.854676
157,CCR,184,永豐,,,,,,赣语,,吉茶片,,永丰,27.317869,115.441477
158,CCR,185,蓮花,,,,,,赣语,,吉茶片,,莲花,27.127669,113.961465
159,CCR,186,吉安,,,,,,赣语,,吉茶片,,吉安,27.113039,114.992913
160,CCR,187,吉水(螺田),,,,,,赣语,,吉茶片,,吉水(螺田),27.004408,115.544618
161,CCR,188,永新,,,,,,赣语,,吉茶片,,永新,26.945233,114.242675
162,CCR,189,泰和,,,,,,赣语,,吉茶片,,泰和,26.790231,114.908861
163,CCR,190,茶陵,,,,,,赣语,,吉茶片,,茶陵,26.777661,113.539224
164,CCR,191,東鄉,,,,,,赣语,,抚广片,,东乡,28.236118,116.590465
165,CCR,192,臨川,,,,,,赣语,,抚广片,,临川,27.977282,116.360068
166,CCR,193,南城,,,,,,赣语,,抚广片,,南城,27.552748,116.644658
167,CCR,194,宜黃,,,,,,赣语,,抚广片,,宜黄,27.546146,116.222128
168,CCR,195,邵武,,,,,,赣语,,抚广片,,邵武,27.340399,117.492599
169,CCR,196,黎川,,,,,,赣语,,抚广片,,黎川,27.295061,116.911808
170,CCR,197,南豐,,,,,,赣语,,抚广片,,南丰,27.218445,116.525725
171,CCR,198,泰寧(城關話),,,,,,赣语,,抚广片,,泰宁(城关话),26.900248,117.175614
172,CCR,199,建寧,,,,,,赣语,,抚广片,,建宁,26.830902,116.846084
173,CCR,200,建寧(城關話),,,,,,赣语,,抚广片,,建宁(城关话),26.830902,116.846084
174,CCR,201,樂平,,,,,,赣语,,鹰弋片,,乐平,28.961902,117.129169
175,CCR,202,波陽,,,,,,赣语,,鹰弋片,,波阳,28.859051,117.335662
176,CCR,203,余干,,,,,,赣语,,鹰弋片,,余干,28.702302,116.695647
177,CCR,204,橫峰,,,,,,赣语,,鹰弋片,,横峰,28.407118,117.596452
178,CCR,205,弋陽,,,,,,赣语,,鹰弋片,,弋阳,28.378044,117.449588
179,CCR,206,陽新(國和),,,,,,赣语,,大通片,,阳新(国和),29.830258,115.215227
180,CCR,207,岳西,,,,,,赣语,,怀岳片,,岳西,30.849442,116.359893
181,CCR,208,懷寧,,,,,,赣语,,怀岳片,,怀宁,30.73431,116.829694
182,CCR,209,潛山,,,,,,赣语,,怀岳片,,潜山,30.631139,116.581257
183,CCR,210,太湖,,,,,,赣语,,怀岳片,,太湖,30.45422,116.308799
184,CCR,211,宿松(河塔),,,,,,赣语,,怀岳片,,宿松(河塔),30.15374,116.129104
185,CCR,212,宿松,,,,,,赣语,,怀岳片,,宿松(安徽省志),30.15374,116.129104
186,CCR,213,望江,,,,,,赣语,,怀岳片,,望江,30.124422,116.694117
187,CCR,214,東至,,,,,,赣语,,怀岳片,,东至,30.096687,117.027538
188,CCR,215,長沙,,,,,,湘语,,长益片,,长沙,28.228209,112.938814
189,CCR,216,雙峰,,,,,,湘语,,娄邵片,,双峰,27.459144,112.192446
190,CCR,217,全州(縣城),,,,,,湘语,,娄邵片,,全州(县城),25.928617,111.072926
191,CCR,218,灌陽(文市),,,,,,湘语,,娄邵片,,灌阳(文市),25.678357,111.20036
192,CCR,219,南安(溪美鎮),,,,,,闽语,闽南区,泉漳片,,南安(溪美镇),24.960385,118.386279
193,CCR,220,晉江(青陽鎮),,,,,,闽语,闽南区,泉漳片,,晋江(青阳镇),24.815079,118.580527
194,CCR,221,漳州,,,,,,闽语,闽南区,泉漳片,,漳州,24.513321,117.647363
195,CCR,222,廈門,,,,,,闽语,闽南区,泉漳片,,厦门,24.479836,118.08942
196,CCR,223,漳浦,,,,,,闽语,闽南区,泉漳片,,漳浦,24.117135,117.613817
197,CCR,224,大田,,,,,,闽语,闽南区,大田片,,大田,25.687566,117.848104
198,CCR,225,大田(前路話),,,,,,闽语,闽南区,大田片,,大田(前路话),25.687566,117.848104
199,CCR,226,潮州(府城話),,,,,,闽语,闽南区,潮汕片,,潮州(府城话),23.656972,116.622597
200,CCR,227,潮州,,,,,,闽语,闽南区,潮汕片,,潮州(汉语方音字汇),23.656972,116.622597
201,CCR,228,揭陽(榕城話),,,,,,闽语,闽南区,潮汕片,,揭阳(榕城话),23.549993,116.372831
202,CCR,229,澄海,,,,,,闽语,闽南区,潮汕片,,澄海,23.466496,116.755858
203,CCR,230,汕頭(汕頭市區),,,,,,闽语,闽南区,潮汕片,,汕头(汕头市区),23.353362,116.681943
204,CCR,231,海豐(海城鎮),,,,,,闽语,闽南区,潮汕片,,海丰(海城镇),22.973017,115.33723
205,CCR,232,陸豐(內湖鎮),,,,,,闽语,闽南区,潮汕片,,陆丰(内湖镇),22.975898,115.835409
206,CCR,233,大埔元洲仔(香港新界福佬話),,,,,,闽语,闽南区,潮汕片,,大埔元洲仔(香港新界福佬话),22.446875,114.176488
207,CCR,234,電白(霞洞鎮黎話),,,,,,闽语,闽南区,雷州片,,电白(霞洞镇黎话),21.734791,111.115315
208,CCR,235,海康(雷城話),,,,,,闽语,闽南区,雷州片,,海康(雷城话),20.694242,109.791453
209,CCR,236,仙游(城關話),,,,,,闽语,莆仙区,,,仙游(城关话),25.362051,118.691599
210,CCR,237,莆田,,,,,,闽语,莆仙区,,,莆田,25.454085,119.007777
211,CCR,238,古田,,,,,,闽语,闽东区,侯官片,,古田,26.577841,118.746087
212,CCR,239,馬祖,,,,,,闽语,闽东区,侯官片,,马祖,26.162183,119.962251
213,CCR,240,福州,,,,,,闽语,闽东区,侯官片,,福州,26.074508,119.296494
214,CCR,241,福清,,,,,,闽语,闽东区,侯官片,,福清,25.720229,119.383735
215,CCR,242,柘榮,,,,,,闽语,闽东区,福宁片,,柘荣,27.234418,119.900554
216,CCR,243,福安,,,,,,闽语,闽东区,福宁片,,福安,27.088049,119.64777
217,CCR,244,寧德,,,,,,闽语,闽东区,福宁片,,宁德,26.666291,119.526287
218,CCR,245,崇安(崇城鎮城關話),,,,,,闽语,闽北区,西北片,,崇安(崇城镇城关话),27.753,118.0369
219,CCR,246,石陂,,,,,,闽语,闽北区,西北片,,石陂,27.699177,118.369541
220,CCR,247,建陽(潭城鎮城關話),,,,,,闽语,闽北区,西北片,,建阳(潭城镇城关话),27.331909,118.120518
221,CCR,248,松溪,,,,,,闽语,闽北区,东南片,,松溪,27.526232,118.785468
222,CCR,249,建甌,,,,,,闽语,闽北区,东南片,,建瓯,27.022725,118.304988
223,CCR,250,建甌(市志),,,,,,闽语,闽北区,东南片,,建瓯(市志),27.022725,118.304988
224,CCR,251,沙縣(城關話),,,,,,闽语,闽中区,,,沙县(城关话),26.3973,117.79245
225,CCR,252,明溪(城關話),,,,,,闽语,闽中区,,,明溪(城关话),26.355857,117.202226
226,CCR,253,三明(三元話),,,,,,闽语,闽中区,,,三明(三元话),26.263432,117.638709
227,CCR,254,平南(上渡雅埠),,,,,,闽语,,,,平南(上渡雅埠)(广西汉语方言),23.536176,110.377941
228,CCR,255,中山(隆都),,,,,,闽语,,,,中山(隆都)(珠江三角洲),23.574028,116.730264
229,CCR,256,中山(隆都),,,,,,闽语,,,,中山(隆都)(广东闽方言),23.574028,116.730264
230,CCR,257,中山(三鄉),,,,,,闽语,,,,中山(三乡),22.345332,113.42651
231,CCR,258,曼谷(潮州話),,,,,,闽语,,,,曼谷(潮州话),13.82031,100.66471
232,CCR,259,將樂(城關話),,,,,,闽语,邵将区,,,将乐(城关话),26.728588,117.47181
233,CCR,260,樂昌,,,,,,粤语,,广府片,,乐昌,25.130103,113.347578
234,CCR,261,仁化,,,,,,粤语,,广府片,,仁化,25.085621,113.749027
235,CCR,262,韶關,,,,,,粤语,,广府片,,韶关,24.810403,113.597522
236,CCR,263,曲江(馬壩),,,,,,粤语,,广府片,,曲江(马坝),24.682728,113.604549
237,CCR,264,英德,,,,,,粤语,,广府片,,英德,24.186062,113.415045
238,CCR,265,佛岡,,,,,,粤语,,广府片,,佛冈,23.879192,113.531607
239,CCR,266,清遠,,,,,,粤语,,广府片,,清远,23.681801,113.056042
240,CCR,267,從化(城內),,,,,,粤语,,广府片,,从化(城内),23.548404,113.586365
241,CCR,268,花縣(花山),,,,,,粤语,,广府片,,花县(花山),23.449658,113.269762
242,CCR,269,桂平(縣城),,,,,,粤语,,广府片,,桂平(县城),23.394326,110.079379
243,CCR,270,增城(縣城),,,,,,粤语,,广府片,,增城(县城),23.289339,113.837658
244,CCR,271,三水(西南),,,,,,粤语,,广府片,,三水(西南),23.155926,112.896652
245,CCR,272,廣州,,,,,,粤语,,广府片,,广州,23.129163,113.264435
246,CCR,273,肇慶(高要),,,,,,粤语,,广府片,,肇庆(高要),23.025404,112.457775
247,CCR,274,佛山(市區),,,,,,粤语,,广府片,,佛山(市区),23.021548,113.121416
248,CCR,275,番禺(市橋),,,,,,粤语,,广府片,,番禺(市桥),22.951902,113.374448
249,CCR,276,雲浮(雲城),,,,,,粤语,,广府片,,云浮(云城),22.928115,112.043856
250,CCR,277,南海(沙頭),,,,,,粤语,,广府片,,南海(沙头),22.913668,113.031416
251,CCR,278,高明(明城),,,,,,粤语,,广府片,,高明(明城),22.900103,112.892333
252,CCR,279,順德(大良),,,,,,粤语,,广府片,,顺德(大良),22.844015,113.246946
253,CCR,280,新田蕃田(圍頭話),,,,,,粤语,,广府片,,新田蕃田(围头话),22.700702,114.088427
254,CCR,281,新興,,,,,,粤语,,广府片,,新兴,22.695698,112.225342
255,CCR,282,大埔三門仔(蜑家話),,,,,,粤语,,广府片,,大埔三门仔(蜑家话),22.460365,114.204047
256,CCR,283,大埔泰亨(圍頭話),,,,,,粤语,,广府片,,大埔泰亨(围头话),22.440897,114.164743
257,CCR,284,香港(市區),,,,,,粤语,,广府片,,香港(市区),22.396428,114.109497
258,CCR,285,西貢蠔涌(圍頭話),,,,,,粤语,,广府片,,西贡蚝涌(围头话),22.355548,114.250586
259,CCR,286,澳門(市區),,,,,,粤语,,广府片,,澳门(市区),22.198745,113.543873
260,CCR,287,寧明(縣城),,,,,,粤语,,广府片,,宁明(县城),22.140567,107.07653
261,CCR,288,北海(廉州鎮),,,,,,粤语,,广府片,,北海(廉州镇),21.660152,109.20053
262,CCR,289,北海(南康鎮),,,,,,粤语,,广府片,,北海(南康镇),21.588868,109.449293
263,CCR,290,北海(沙田鎮海邊話),,,,,,粤语,,广府片,,北海(沙田镇海边话),21.515984,109.659537
264,CCR,291,北海(市區白話),,,,,,粤语,,广府片,,北海(市区白话),21.481217,109.119899
265,CCR,292,北海(營盤鎮佤話),,,,,,粤语,,广府片,,北海(营盘镇佤话),21.456788,109.446522
266,CCR,293,百色(市內),,,,,,粤语,,高阳片,,百色(市内),23.902371,106.618275
267,CCR,294,南寧(市內),,,,,,粤语,,高阳片,,南宁(市内),22.817642,108.365631
268,CCR,295,欽州(市內),,,,,,粤语,,高阳片,,钦州(市内),21.980968,108.654543
269,CCR,296,北海(市內),,,,,,粤语,,高阳片,,北海(市内),21.481217,109.119899
270,CCR,297,鶴山(雅瑤),,,,,,粤语,,四邑片,,鹤山(雅瑶),22.765435,112.964283
271,CCR,298,江門(白沙),,,,,,粤语,,四邑片,,江门(白沙),22.578723,113.081831
272,CCR,299,新會(會城),,,,,,粤语,,四邑片,,新会(会城),22.4583,113.034187
273,CCR,300,開平(赤坎),,,,,,粤语,,四邑片,,开平(赤坎),22.376484,112.698534
274,CCR,301,斗門(上橫水上話),,,,,,粤语,,四邑片,,斗门(上横水上话),22.371552,113.214716
275,CCR,302,台山(台城),,,,,,粤语,,四邑片,,台山(台城),22.251924,112.794065
276,CCR,303,斗門(斗門鎮),,,,,,粤语,,四邑片,,斗门(斗门镇),22.234906,113.198819
277,CCR,304,恩平(牛江),,,,,,粤语,,四邑片,,恩平(牛江),22.183229,112.305126
278,CCR,305,臨桂(五通)(土話),,,,,,粤语,,勾漏片,,临桂(五通)(土话),25.238657,110.212557
279,CCR,306,融水(縣城)(土拐話),,,,,,粤语,,勾漏片,,融水(县城)(土拐话),25.066613,109.256516
280,CCR,307,連縣(清水),,,,,,粤语,,勾漏片,,连县(清水),24.780554,112.377534
281,CCR,308,平樂(張家)(土話),,,,,,粤语,,勾漏片,,平乐(张家)(土话),24.633395,110.643242
282,CCR,309,連山(布田),,,,,,粤语,,勾漏片,,连山(布田),24.570465,112.093506
283,CCR,310,宜州(德勝)(百姓話),,,,,,粤语,,勾漏片,,宜州(德胜)(百姓话),24.485099,108.636617
284,CCR,311,陽山,,,,,,粤语,,勾漏片,,阳山,24.466675,112.626495
285,CCR,312,蒙山(西河),,,,,,粤语,,勾漏片,,蒙山(西河),24.201745,110.522144
286,CCR,313,信都(鋪門),,,,,,粤语,,勾漏片,,信都(铺门),23.989179,111.724921
287,CCR,314,懷集,,,,,,粤语,,勾漏片,,怀集,23.911933,112.184647
288,CCR,315,百色(那畢)(平話),,,,,,粤语,,勾漏片,,百色(那毕)(平话),23.902371,106.618275
289,CCR,316,廣寧,,,,,,粤语,,勾漏片,,广宁,23.634671,112.440683
290,CCR,317,武宣(樟村)(伢話),,,,,,粤语,,勾漏片,,武宣(樟村)(伢话),23.59411,109.663207
291,CCR,318,封開(南豐),,,,,,粤语,,勾漏片,,封开(南丰),23.424033,111.512343
292,CCR,319,四會,,,,,,粤语,,勾漏片,,四会,23.326504,112.733773
293,CCR,320,郁南(平台),,,,,,粤语,,勾漏片,,郁南(平台),23.234627,111.535249
294,CCR,321,賓陽(新橋)(賓陽話),,,,,,粤语,,勾漏片,,宾阳(新桥)(宾阳话),23.217829,108.810344
295,CCR,322,德慶,,,,,,粤语,,勾漏片,,德庆,23.143677,111.785878
296,CCR,323,貴港(南江),,,,,,粤语,,勾漏片,,贵港(南江),23.111531,109.598927
297,CCR,324,南寧(沙井)(平話),,,,,,粤语,,勾漏片,,南宁(沙井)(平话),22.817642,108.365631
298,CCR,325,羅定,,,,,,粤语,,勾漏片,,罗定,22.768595,111.570011
299,CCR,326,北流(唐僚),,,,,,粤语,,勾漏片,,北流(唐僚),22.708311,110.354215
300,CCR,327,橫縣(縣城),,,,,,粤语,,勾漏片,,横县(县城),22.680054,109.261369
301,CCR,328,扶綏(龍頭)(平話),,,,,,粤语,,勾漏片,,扶绥(龙头)(平话),22.635013,107.904187
302,CCR,329,崇左(四排話)(平話),,,,,,粤语,,勾漏片,,崇左(四排话)(平话),22.377281,107.364962
303,CCR,330,博白(縣城),,,,,,粤语,,勾漏片,,博白(县城),22.27305,109.976531
304,CCR,331,靈山(縣城),,,,,,粤语,,吴化片,,灵山(县城),22.416537,109.291007
305,CCR,332,浦北(縣城),,,,,,粤语,,吴化片,,浦北(县城),22.271651,109.556953
306,CCR,333,中山(石岐),,,,,,粤语,,香山片,,中山(石岐),22.516686,113.392795
307,CCR,334,珠海(前山),,,,,,粤语,,香山片,,珠海(前山),22.270715,113.576726
308,CCR,335,東莞(莞城),,,,,,粤语,,莞宝片,,东莞(莞城),23.020536,113.751765
309,CCR,336,寶安(沙井),,,,,,粤语,,莞宝片,,宝安(沙井),22.737893,113.802593
310,CCR,337,香港(新界錦田),,,,,,粤语,,莞宝片,,香港(新界锦田),22.4537,114.0664
311,CCR,338,曼谷(廣府話),,,,,,粤语,,海外粤语,,曼谷(广府话),13.82031,100.66471
312,CCR,339,寧遠(清水橋),,,,,,平话,,桂北片,两灵小片,宁远(清水桥),25.880825,111.9522
313,CCR,340,龍勝(紅瑤),,,,,,平话,,桂北片,两灵小片,龙胜(红瑶),25.877753,110.143277
314,CCR,341,靈川(三街),,,,,,平话,,桂北片,两灵小片,灵川(三街),25.463987,110.392641
315,CCR,342,靈川(潭下),,,,,,平话,,桂北片,两灵小片,灵川(潭下),25.452188,110.288861
316,CCR,343,桂林(朝陽),,,,,,平话,,桂北片,两灵小片,桂林(朝阳),25.264338,110.34474
317,CCR,344,桂林(雁山竹園),,,,,,平话,,桂北片,两灵小片,桂林(雁山竹园),25.247464,110.282864
318,CCR,345,臨桂(兩江),,,,,,平话,,桂北片,两灵小片,临桂(两江),25.204605,110.022681
319,CCR,346,永福(桃城),,,,,,平话,,桂北片,两灵小片,永福(桃城),24.979667,109.981026
320,CCR,347,陽朔(驥馬),,,,,,平话,,桂北片,两灵小片,阳朔(骥马),24.778433,110.496682
321,CCR,348,臨桂(五通),,,,,,平话,,桂北片,义融小片,临桂(五通),25.374643,110.069472
322,CCR,349,融水(融水鎮),,,,,,平话,,桂北片,义融小片,融水(融水镇),25.078862,109.258508
323,CCR,350,平樂(青龍),,,,,,平话,,桂北片,义融小片,平乐(青龙),24.508281,110.844584
324,CCR,351,富寧(剝隘),,,,,,平话,,桂南片,西南小片,富宁(剥隘),23.929477,106.075395
325,CCR,352,百色(那畢),,,,,,平话,,桂南片,西南小片,百色(那毕)(平话音韵研究),23.88369,106.6211
326,CCR,353,馬山(喬利),,,,,,平话,,桂南片,西南小片,马山(乔利),23.635538,108.110126
327,CCR,354,田東(林逢),,,,,,平话,,桂南片,西南小片,田东(林逢),23.589748,107.211219
328,CCR,355,賓陽(蘆墟),,,,,,平话,,桂南片,西南小片,宾阳(芦墟),23.222253,108.813205
329,CCR,356,南寧(亭子),,,,,,平话,,桂南片,西南小片,南宁(亭子),22.789454,108.322845
330,CCR,357,橫縣(橫州),,,,,,平话,,桂南片,西南小片,横县(横州),22.69701,109.278543
331,CCR,358,扶綏(龍頭),,,,,,平话,,桂南片,西南小片,扶绥(龙头),22.694345,107.960567
332,CCR,359,龍州(上龍),,,,,,平话,,桂南片,西南小片,龙州(上龙),22.417347,106.855434
333,CCR,360,藤縣(藤城),,,,,,平话,,桂南片,东南小片,藤县(藤城),23.376423,110.913939
334,CCR,361,鬱林(福綿),,,,,,平话,,桂南片,东南小片,郁林(福绵),22.579849,110.050863
335,CCR,362,從化(呂田),,,,,,客家话,,粤台片,龙华小片,从化(吕田),23.810703,113.950523
336,CCR,363,河源(廣東),,,,,,客家话,,粤台片,龙华小片,河源(广东),23.743538,114.70045
337,CCR,364,揭西(廣東),,,,,,客家话,,粤台片,龙华小片,揭西(广东),23.431191,115.841783
338,CCR,365,梅縣(廣東),,,,,,客家话,,粤台片,梅惠小片,梅县(广东),24.265265,116.082129
339,CCR,366,惠州(市區),,,,,,客家话,,粤台片,梅惠小片,惠州(市区),23.111847,114.416196
340,CCR,367,東莞(清溪),,,,,,客家话,,粤台片,梅惠小片,东莞(清溪)(客赣方言调查报告),22.841723,114.165204
341,CCR,368,東莞(清溪),,,,,,客家话,,粤台片,梅惠小片,东莞(清溪),22.841723,114.165204
342,CCR,369,深圳(沙頭角),,,,,,客家话,,粤台片,梅惠小片,深圳(沙头角),22.55,114.216667
343,CCR,370,沙頭角麻雀嶺(香港新界),,,,,,客家话,,粤台片,梅惠小片,沙头角麻雀岭(香港新界),22.53074,114.201496
344,CCR,371,西貢荔枝莊(香港新界),,,,,,客家话,,粤台片,梅惠小片,西贡荔枝庄(香港新界),22.456845,114.300095
345,CCR,372,沙田赤泥坪(香港新界),,,,,,客家话,,粤台片,梅惠小片,沙田赤泥坪(香港新界),22.418144,114.201962
346,CCR,373,香港,,,,,,客家话,,粤台片,梅惠小片,香港,22.396428,114.109497
347,CCR,374,屯門楊小坑(香港新界),,,,,,客家话,,粤台片,梅惠小片,屯门杨小坑(香港新界),22.394755,113.966843
348,CCR,375,連南(廣東),,,,,,客家话,,粤北片,,连南(广东),24.726017,112.287012
349,CCR,376,翁源(廣東),,,,,,客家话,,粤北片,,翁源(广东),24.350347,114.130342
350,CCR,377,寧化(福建),,,,,,客家话,,汀州片,,宁化(福建),26.261754,116.654365
351,CCR,378,長汀(福建),,,,,,客家话,,汀州片,,长汀(福建),25.83331,116.35182
352,CCR,379,武平(福建),,,,,,客家话,,汀州片,,武平(福建),25.095506,116.100349
353,CCR,380,秀篆(福建詔安),,,,,,客家话,,汀州片,,秀篆(福建诏安),24.102458,116.96722
354,CCR,381,寧都(江西),,,,,,客家话,,宁龙片,,宁都(江西),26.471255,116.01315
355,CCR,382,寧都縣梅江鎮,,,,,,客家话,,宁龙片,,宁都县梅江镇,26.468166,116.021963
356,CCR,383,石城,,,,,,客家话,,宁龙片,,石城,26.326564,116.343479
357,CCR,384,龍南,,,,,,客家话,,宁龙片,,龙南,24.911107,114.789811
358,CCR,385,定南,,,,,,客家话,,宁龙片,,定南,24.78441,115.027845
359,CCR,386,全南,,,,,,客家话,,宁龙片,,全南,24.742401,114.530125
360,CCR,387,全南縣城廂鎮,,,,,,客家话,,宁龙片,,全南县城厢镇,24.739972,114.526892
361,CCR,388,于都,,,,,,客家话,,于信片,,于都,25.952066,115.41551
362,CCR,389,上猶縣社溪鄉江頭,,,,,,客家话,,于信片,,上犹县社溪乡江头,25.935586,114.600054
363,CCR,390,贛縣(江西蟠龍鎮),,,,,,客家话,,于信片,,赣县(江西蟠龙镇),25.821508,114.87156
364,CCR,391,上猶(江西),,,,,,客家话,,于信片,,上犹(江西),25.790805,114.537225
365,CCR,392,南康,,,,,,客家话,,于信片,,南康,25.661356,114.765238
366,CCR,393,南康市蓉江鎮,,,,,,客家话,,于信片,,南康市蓉江镇,25.661356,114.765238
367,CCR,394,大余(江西),,,,,,客家话,,于信片,,大余(江西),25.3952,114.358083
368,CCR,395,安遠縣欣山鎮,,,,,,客家话,,于信片,,安远县欣山镇,25.13839,115.394376
369,CCR,396,安遠,,,,,,客家话,,于信片,,安远,25.136925,115.393922
370,CCR,397,修水縣黃沙橋鄉,,,,,,客家话,,铜桂片,,修水县黄沙桥乡,28.919841,114.67691
371,CCR,398,澡溪,,,,,,客家话,,铜桂片,,澡溪,28.748384,114.967994
372,CCR,399,三都(江西銅鼓),,,,,,客家话,,铜桂片,,三都(江西铜鼓),28.566542,114.453869
373,CCR,400,銅鼓,,,,,,客家话,,铜桂片,,铜鼓,28.520747,114.37098
374,CCR,401,井岡山,,,,,,客家话,,铜桂片,,井冈山,26.54411,114.147335
375,CCR,402,信宜思賀,,,,,,客家话,,粤西片,,信宜思贺,22.469187,111.577707
376,CCR,403,信宜錢排,,,,,,客家话,,粤西片,,信宜钱排,22.368556,111.25434
377,CCR,404,陽春三甲,,,,,,客家话,,粤西片,,阳春三甲,22.0623,111.50695
378,CCR,405,高州新垌,,,,,,客家话,,粤西片,,高州新垌,21.906868,111.074764
379,CCR,406,廉江石角,,,,,,客家话,,粤西片,,廉江石角,21.890738,110.323543
380,CCR,407,陽西塘口,,,,,,客家话,,粤西片,,阳西塘口,21.827616,111.579373
381,CCR,408,電白沙琅,,,,,,客家话,,粤西片,,电白沙琅,21.783483,111.230111
382,CCR,409,化州新安,,,,,,客家话,,粤西片,,化州新安,21.652739,110.428305
383,CCR,410,廉江青平,,,,,,客家话,,粤西片,,廉江青平,21.62793,109.917811
384,CCR,411,梧州西河(蒙山),,,,,,客家话,,广西客语,,梧州西河(蒙山),24.198292,110.519913
385,CCR,412,南寧馬山(片聯),,,,,,客家话,,广西客语,,南宁马山(片联),23.458533,108.029219
386,CCR,413,玉林興業(高峰鄉),,,,,,客家话,,广西客语,,玉林兴业(高峰乡),22.982309,109.881408
387,CCR,414,玉林容縣(縣底鎮縣底村),,,,,,客家话,,广西客语,,玉林容县(县底镇县底村),22.97521,110.5725
388,CCR,415,玉林北流(西埌鎮木棉村),,,,,,客家话,,广西客语,,玉林北流(西埌镇木棉村),22.744944,110.300591
389,CCR,416,玉林北流(塘岸),,,,,,客家话,,广西客语,,玉林北流(塘岸),22.592584,110.269637
390,CCR,417,玉林福綿(橋鎮新沙村),,,,,,客家话,,广西客语,,玉林福绵(桥镇新沙村),22.579849,110.050863
391,CCR,418,玉林陸川,,,,,,客家话,,广西客语,,玉林陆川(客赣方言调查报告),22.321058,110.264118
392,CCR,419,玉林陸川(橫山鄉四和村),,,,,,客家话,,广西客语,,玉林陆川(横山乡四和村),22.240387,110.164941
393,CCR,420,玉林博白(新田鎮村頭村),,,,,,客家话,,广西客语,,玉林博白(新田镇村头村),21.967567,109.930749
394,CCR,421,中山(南蓢合水),,,,,,客家话,,客语方言岛,,中山(南蓢合水),22.492542,113.531779
395,CCR,422,曼谷(半山客話),,,,,,客家话,,海外客语,,曼谷(半山客话),13.82031,100.66471
396,CCR,423,馬來西亞(柔佛士乃客家話),,,,,,客家话,,海外客语,,马来西亚(柔佛士乃客家话),1.620287,103.656334
397,CCR,424,富川(七都話),,,,,,土话,桂东桂北土话,,,富川(七都话),24.814444,111.277389
398,CCR,425,富川(八都話),,,,,,土话,桂东桂北土话,,,富川(八都话),24.814444,111.277389
399,CCR,426,鍾山(公安),,,,,,土话,桂东桂北土话,,,钟山(公安),24.478941,111.193098
400,CCR,427,賀州(九都話),,,,,,土话,桂东桂北土话,,,贺州(九都话),24.40357,111.566753
401,CCR,428,湖南(道縣),,,,,,土话,湘南土话,,,湖南(道县),25.526438,111.600796
402,CCR,429,江永城關(白水村),,,,,,土话,湘南土话,,,江永城关(白水村),25.2745,111.389
403,CCR,430,豐陽,,,,,,土话,粤北土话,连州土话,,丰阳,25.048997,112.278445
404,CCR,431,星子,,,,,,土话,粤北土话,连州土话,,星子,24.998785,112.560464
405,CCR,432,西岸,,,,,,土话,粤北土话,连州土话,,西岸,24.92203,112.291528
406,CCR,433,保安,,,,,,土话,粤北土话,连州土话,,保安,24.911742,112.394404
407,CCR,434,連州,,,,,,土话,粤北土话,连州土话,,连州,24.780554,112.377534
408,MCPDict,海倫,海倫話,黑龙江,绥化,海伦,,,官话,东北官话,黑松片,嫩克小片,海伦,47.456293,126.936984
409,MCPDict,塔玆語,塔玆語,海外,*俄罗斯滨海边疆区奥利津斯基区,,,,官话,东北官话,黑松片,方言岛,塔玆语,43.748287,135.289871
410,MCPDict,錦州,錦州話,辽宁,锦州,,,,官话,东北官话,哈阜片,长锦小片,锦州,41.121588,121.141511
411,MCPDict,唐山-開平,唐山話-開平話,河北,唐山,开平,,,官话,冀鲁官话,保唐片,蓟遵小片,唐山-开平,39.674034,118.267454
412,MCPDict,玉田,玉田話,河北,唐山,玉田,,,官话,冀鲁官话,保唐片,蓟遵小片,玉田,39.901282,117.753192
413,MCPDict,天津,天津話,天津,,,,,官话,冀鲁官话,保唐片,天津小片,天津,39.120892,117.212403
414,MCPDict,容城,容城話,河北,保定,容城,,,官话,冀鲁官话,保唐片,定霸小片,容城,39.058423,115.874377
415,MCPDict,無極,無極話,河北,石家庄,无极,,,官话,冀鲁官话,石济片,赵深小片,无极,38.185232,114.982728
416,MCPDict,深澤,深澤話,河北,石家庄,深泽,,,官话,冀鲁官话,石济片,赵深小片,深泽,38.192493,115.208842
417,MCPDict,趙縣,趙縣話,河北,石家庄,赵县,,,官话,冀鲁官话,石济片,赵深小片,赵县,37.749137,114.769961
418,MCPDict,行唐,行唐話,河北,石家庄,行唐,,,官话,冀鲁官话,石济片,赵深小片,行唐,38.444761,114.558305
419,MCPDict,平山,平山話,河北,石家庄,平山,,,晋语,,张呼片,,平山,38.255703,114.205496
420,MCPDict,靈壽,靈壽話,河北,石家庄,灵寿,,,晋语,,张呼片,,灵寿,38.313723,114.388328
421,MCPDict,隆堯,隆堯話,河北,邢台,隆尧,,,官话,冀鲁官话,石济片,邢衡小片,隆尧,37.354531,114.784086
422,MCPDict,平鄕,平鄕話,河北,邢台,平鄕,,,官话,冀鲁官话,石济片,邢衡小片,平鄕,37.069559,115.038881
423,MCPDict,內丘,內丘話,河北,邢台,内丘,,,官话,冀鲁官话,石济片,邢衡小片,内丘,37.294235,114.517343
424,MCPDict,南皮,南皮話,河北,沧州,南皮,,,官话,冀鲁官话,沧惠片,黄乐小片,南皮,38.046098,116.722503
425,MCPDict,臨西,臨西話,河北,邢台,临西,,,官话,冀鲁官话,石济片,聊泰小片,临西,36.879532,115.509926
426,MCPDict,冠縣,冠縣話,山东,聊城,冠县,,,官话,冀鲁官话,石济片,聊泰小片,冠县,36.490941,115.451123
427,MCPDict,武城,武城話,山东,德州,武城,,,官话,冀鲁官话,石济片,聊泰小片,武城,37.220371,116.081832
428,MCPDict,平原,平原話,山东,德州,平原,,,官话,冀鲁官话,沧惠片,黄乐小片,平原,37.172372,116.439932
429,MCPDict,樂陵,樂陵話,山东,德州,乐陵,,,官话,冀鲁官话,沧惠片,黄乐小片,乐陵,37.738435,117.23266
430,MCPDict,陽信,陽信話,山东,滨州,阳信,,,官话,冀鲁官话,沧惠片,阳寿小片,阳信,37.648483,117.587885
431,MCPDict,濟陽,濟陽話,山东,济南,济阳,,,官话,冀鲁官话,沧惠片,阳寿小片,济阳,36.982818,117.179471
432,MCPDict,濱州,濱州話,山东,滨州,,,,官话,冀鲁官话,沧惠片,黄乐小片,滨州,37.388885,117.984586
433,MCPDict,濟南,濟南話,山东,济南,,,,官话,冀鲁官话,石济片,聊泰小片,济南,36.658862,116.995062
434,MCPDict,平陰東阿,平陰東阿話,山东,济南,平阴,东阿,,官话,冀鲁官话,石济片,聊泰小片,平阴东阿,36.172849,116.28539
435,MCPDict,安澤大黃,安澤大黃萊蕪話,山西,临汾,安泽,府城,大黄,官话,冀鲁官话,石济片,聊泰小片,安泽大黄,36.219186,112.299723
436,MCPDict,泰安,泰安話,山东,泰安,,,,官话,冀鲁官话,石济片,聊泰小片,泰安,36.172301,117.054248
437,MCPDict,張店馬尙,淄博張店馬尙話,山东,淄博,张店,马尚,,官话,冀鲁官话,石济片,聊泰小片,张店马尙,36.835661,118.020385
438,MCPDict,臨淄金嶺回民,臨淄金嶺回民話,山东,淄博,临淄,金岭,,官话,冀鲁官话,石济片,聊泰小片,临淄金岭回民,36.79732,118.203
439,MCPDict,鄒平,鄒平話,山东,滨州,邹平,,,官话,冀鲁官话,沧惠片,章桓小片,邹平,36.820934,118.062605
440,MCPDict,榮成人和,榮成人和話,山东,威海,荣成,人和,,官话,胶辽官话,登连片,烟威小片,荣成人和,36.897774,122.311646
441,MCPDict,煙臺,煙臺話,山东,烟台,,,,官话,胶辽官话,登连片,烟威小片,烟台,37.541621,121.402584
442,MCPDict,棲霞,棲霞話,山东,烟台,栖霞,,,官话,胶辽官话,登连片,烟威小片,栖霞,37.315822,120.840892
443,MCPDict,萊西,萊西話,山东,青岛,莱西,,,官话,胶辽官话,登连片,烟威小片,莱西,36.894188,120.523979
444,MCPDict,長島,長島話,山东,烟台,长岛,,,官话,胶辽官话,登连片,蓬龙小片,长岛,37.945376,120.746152
445,MCPDict,虎林,虎林話,黑龙江,鸡西,虎林,,,官话,胶辽官话,盖桓片,,虎林,45.776977,132.987768
446,MCPDict,同江二屯,同江二屯話,黑龙江,佳木斯,同江,三村,二村,官话,胶辽官话,盖桓片,,同江二屯,47.753121,132.633421
447,MCPDict,濰坊,濰坊話,山东,潍坊,,,,官话,冀鲁官话,沧惠片,阳寿小片,潍坊,36.715892,119.172973
448,MCPDict,平度南滾泉,平度南滾泉話,山东,靑岛,平度,田庄,南滚泉,官话,胶辽官话,靑莱片,胶莲小片,平度南滚泉,36.86888,119.647337
449,MCPDict,蒙陰北河東,蒙陰北河東話,山东,临沂,蒙阴,垛庄,北河东,官话,冀鲁官话,石济片,聊泰小片,蒙阴北河东,35.704029,118.145727
450,MCPDict,靑島,靑島話,山东,靑岛,,,,官话,胶辽官话,靑莱片,胶莲小片,靑岛,36.088503,120.364808
451,MCPDict,靑島嶗山,靑島嶗山話,山东,靑岛,崂山,,,官话,胶辽官话,靑莱片,胶莲小片,靑岛崂山,36.10895,120.471878
452,MCPDict,莒南東,莒南東部話,山东,临沂,莒南,朱芦、坊前、壮岗、坪上、团林,,官话,冀鲁官话,沧惠片,莒照小片,莒南东,35.222131,119.136298
453,MCPDict,贛楡,贛楡話,江苏,连云港,赣楡,,,官话,中原官话,徐淮片,,赣楡,34.840652,119.177321
454,MCPDict,曹縣,曹縣話,山东,菏泽,曹县,,,官话,中原官话,兖菏片,,曹县,34.840816,115.556503
455,MCPDict,費縣,費縣話,山东,临沂,费县,,,官话,中原官话,兖菏片,,费县,35.273247,117.984425
456,MCPDict,郯城重坊,郯城重坊話,山东,临沂,郯城,重坊,,官话,中原官话,兖菏片,,郯城重坊,34.606007,118.150388
457,MCPDict,徐州,徐州話,江苏,徐州,,,,官话,中原官话,徐淮片,,徐州,34.288232,117.185541
458,MCPDict,豐縣,豐縣話,江苏,徐州,丰县,,,官话,中原官话,徐淮片,,丰县,34.699193,116.58578
459,MCPDict,洪澤洪祥,洪澤洪祥話,江苏,淮安,洪泽,/,洪祥,官话,中原官话,徐淮片,,洪泽洪祥,33.326802,118.863312
460,MCPDict,利辛,利辛話,安徽,亳州,利辛,,,官话,中原官话,商阜片,,利辛,33.144433,116.197246
461,MCPDict,蚌埠,蚌埠話,安徽,蚌埠,,,,官话,中原官话,信蚌片,,蚌埠,32.917642,117.382567
462,MCPDict,永年,永年話,河北,邯郸,永年,,,晋语,,邯新片,磁漳小片,永年,36.767693,114.502045
463,MCPDict,武安,武安話,河北,邯郸,武安,,,晋语,,邯新片,磁漳小片,武安,36.268748,112.243668
464,MCPDict,安澤秦壁,安澤秦壁林州話,山西,临汾,安泽,马壁,秦必,晋语,,邯新片,获济小片,安泽秦壁,35.934869,112.234559
465,MCPDict,安陽,安陽話,河南,安阳,,,,晋语,,邯新片,获济小片,安阳,36.097308,114.381681
466,MCPDict,湯陰五陵,湯陰五陵話,河南,安阳,汤阴,五陵,,晋语,,邯新片,获济小片,汤阴五陵,35.856693,114.589632
467,MCPDict,安澤馬壁,安澤馬壁輝縣話,山西,临汾,安泽,马壁,马壁,晋语,,邯新片,获济小片,安泽马壁,35.99165,112.309266
468,MCPDict,新鄕郞公廟,新鄕郞公廟話,河南,新鄕,新乡县,郎公庙,,晋语,,邯新片,获济小片,新鄕郞公庙,35.206931,113.919563
469,MCPDict,沁陽,沁陽話,河南,焦作,沁阳,,,晋语,,邯新片,获济小片,沁阳,35.092132,112.950617
470,MCPDict,陽城蟒河,陽城蟒河話,山西,晋城,阳城,蟒河,,晋语,,上党片,晋城小片,阳城蟒河,35.380815,112.443305
471,MCPDict,長治,長治(漢民)話,山西,长治,,,,晋语,,上党片,长治小片,长治,36.202898,113.121987
472,MCPDict,長子,長子話,山西,长治,长子,,,晋语,,上党片,长治小片,长子,36.128933,112.885142
473,MCPDict,屯留,屯留話,山西,长治,屯留,麟绛,,晋语,,上党片,长治小片,屯留,36.313447,112.893032
474,MCPDict,壺關樹掌,壺關樹掌話,山西,长治,壶关,树掌,,晋语,,上党片,长治小片,壶关树掌,35.897512,113.428588
475,MCPDict,大名束館,大名束館話,河北,邯郸,大名,束馆,,官话,中原官话,郑开片,,大名束馆,36.183061,115.418712
476,MCPDict,濮陽,濮陽話,河南,濮阳,,,,官话,中原官话,郑开片,,濮阳,35.769936,115.035018
477,MCPDict,東明,東明話,山东,菏泽,东明,,,官话,中原官话,兖菏片,,东明,35.298694,115.110575
478,MCPDict,登封,登封話,河南,郑州,登封,,,官话,中原官话,洛嵩片,,登封,34.458983,113.056995
479,MCPDict,洛陽,洛陽話,河南,洛阳,,,,官话,中原官话,洛嵩片,,洛阳,34.622838,112.459424
480,MCPDict,鞏義芝田,鞏義芝田話,河南,郑州,巩义,芝田,,官话,中原官话,洛嵩片,,巩义芝田,34.698861,112.952078
481,MCPDict,汝州,汝州話,河南,平顶山,汝州,,,官话,中原官话,南鲁片,,汝州,34.173724,112.853421
482,MCPDict,淅川,淅川話,河南,南阳,淅川,,,官话,中原官话,南鲁片,,淅川,33.146362,111.495703
483,MCPDict,項城,項城話,河南,周口,项城,,,官话,中原官话,漯项片,,项城,33.473249,114.882666
484,MCPDict,阜南,阜南話,安徽,阜阳,阜南,,,官话,中原官话,商阜片,,阜南,32.645371,115.596801
485,MCPDict,潁上,潁上話,安徽,阜阳,颍上,,,官话,中原官话,信蚌片,,颍上,32.658299,116.265203
486,MCPDict,潼關,潼關話,陕西,渭南,潼关,,,官话,中原官话,关中片,,潼关,34.550088,110.251651
487,MCPDict,潼關髙橋,潼關髙橋話,陕西,渭南,潼关,髙桥,吊桥,官话,中原官话,关中片,,潼关髙桥,34.592811,110.213627
488,MCPDict,潼關太要,潼關太要話,陕西,渭南,潼关,太要,万仓,官话,中原官话,关中片,,潼关太要,34.510372,110.338382
489,MCPDict,商州,商州話,陕西,商洛,商州,,,官话,中原官话,关中片,,商州,33.86553,109.943338
490,MCPDict,商州北寬坪,商州北寬坪話,陕西,商洛,商州,北宽坪,,官话,中原官话,关中片,,商州北宽坪,33.912203,110.156286
491,MCPDict,丹鳳,丹鳳話,陕西,商洛,丹凤,,,官话,中原官话,关中片,,丹凤,33.703462,110.332407
492,MCPDict,商南奤子話,商南奤子話,陕西,商洛,商南,,,官话,中原官话,南鲁片,,商南奤子话,33.52821,110.879957
493,MCPDict,澄城,澄城北鄕話,陕西,渭南,澄城,王庄,,官话,中原官话,关中片,,澄城,35.282551,109.850635
494,MCPDict,西安,西安話,陕西,西安,,,,官话,中原官话,关中片,,西安,34.230532,108.934251
495,MCPDict,黃龍,黃龍話,陕西,延安,黄龙,,,官话,中原官话,关中片,,黄龙,35.591412,109.842237
496,MCPDict,銅川,銅川話,陕西,铜川,王益,,,官话,中原官话,关中片,,铜川,34.904296,108.953841
497,MCPDict,寶雞,寶雞話,陕西,宝鸡,陈仓,,,官话,中原官话,秦陇片,,宝鸡,34.374397,107.251758
498,MCPDict,正寧,正寧話,甘肃,庆阳,正宁,山河,,官话,中原官话,秦陇片,,正宁,35.493518,108.365226
499,MCPDict,海原李旺,海原李旺話,宁夏,中卫,海原,李旺,,官话,中原官话,秦陇片,,海原李旺,36.696043,106.102659
500,MCPDict,西吉震湖,西吉震湖話,宁夏,固原,西吉,震湖,,官话,中原官话,陇中片,,西吉震湖,35.872645,105.516558
501,MCPDict,隆德,隆德話,宁夏,固原,隆德,,,官话,中原官话,陇中片,,隆德,35.628711,106.125975
502,MCPDict,秦安郭嘉,秦安郭嘉話,甘肃,天水,秦安,郭嘉,,官话,中原官话,陇中片,,秦安郭嘉,34.940098,105.601588
503,MCPDict,東干甘肅話,東干甘肅話,海外,*吉尔吉斯斯坦莫斯科夫斯基区骚葫芦东干乡庄,,,,官话,中原官话,秦陇片,,东干甘肃话,42.884987,74.090157
504,MCPDict,西寧,西寧話,靑海,西宁,,,,官话,中原官话,秦陇片,,西宁,36.328351,102.835814
505,MCPDict,武威,武威話,甘肃,武威,凉州,,,官话,兰银官话,河西片,,武威,37.934577,102.641097
506,MCPDict,敦煌,敦煌話,甘肃,酒泉,敦煌,,,官话,兰银官话,河西片,,敦煌,40.148748,94.670253
507,MCPDict,烏魯木齊,烏魯木齊話,新疆,乌鲁木齐,,,,官话,兰银官话,北疆片,,乌鲁木齐,43.856042,87.619982
508,MCPDict,霍州,霍州話,山西,临汾,霍州,,,官话,中原官话,汾河片,平阳小片,霍州,36.568681,111.754942
509,MCPDict,古縣堯店,古縣堯店話,山西,临汾,古县,旧县,尧店,官话,中原官话,汾河片,平阳小片,古县尧店,36.165262,111.915411
510,MCPDict,汾城,汾城話,山西,临汾,襄汾,汾城,,官话,中原官话,汾河片,平阳小片,汾城,35.824564,111.287148
511,MCPDict,垣曲新城,垣曲新城話,山西,运城,垣曲,新城,,官话,中原官话,汾河片,绛州小片,垣曲新城,35.311132,111.674031
512,MCPDict,安邑,安邑話,山西,运城,盐湖,安邑,,官话,中原官话,汾河片,解州小片,安邑,35.069731,111.045271
513,MCPDict,運城,運城話,山西,运城,盐湖,,,官话,中原官话,汾河片,解州小片,运城,35.031051,111.007636
514,MCPDict,陽曲黃寨,陽曲黃寨話,山西,太原,阳曲,黄寨,,晋语,,幷州片,,阳曲黄寨,38.067388,112.682755
515,MCPDict,太原,太原話,山西,太原,,,,晋语,,幷州片,,太原,37.876857,112.556197
516,MCPDict,夀陽,壽陽話,山西,晋中,夀阳,朝阳,,晋语,,幷州片,,夀阳,37.884749,113.179799
517,MCPDict,小店,小店話,山西,太原,小店,小店,,晋语,,幷州片,,小店,37.72564,112.572074
518,MCPDict,楡次,楡次話,山西,晋中,楡次,,,晋语,,幷州片,,楡次,37.696647,112.731404
519,MCPDict,徐溝,徐溝話,山西,太原,清徐,徐沟,,晋语,,幷州片,,徐沟,37.563581,112.505549
520,MCPDict,淸源成家坪,淸源成家坪話,山西,太原,淸徐,马峪,陈家坪,晋语,,幷州片,,淸源成家坪,37.734904,112.291083
521,MCPDict,交城,交城話,山西,吕梁,交城,天宁,,晋语,,幷州片,,交城,37.547609,112.161982
522,MCPDict,太谷,太谷話,山西,晋中,太谷,明星,,晋语,,幷州片,,太谷,37.433772,112.561394
523,MCPDict,祁縣,祁縣話,山西,晋中,祁县,昭余,,晋语,,幷州片,,祁县,37.373127,112.351367
524,MCPDict,文水,文水話,山西,吕梁,文水,,,晋语,,幷州片,,文水,37.444047,112.035551
525,MCPDict,文水開柵,文水開柵話,山西,吕梁,文水,开栅,,晋语,,幷州片,,文水开栅,37.510146,112.070732
526,MCPDict,文水裴會,文水裴會話,山西,吕梁,文水,西槽头,裴会,晋语,,幷州片,,文水裴会,37.294349,112.020596
527,MCPDict,汾陽,汾陽話,山西,吕梁,汾阳,,,晋语,,吕梁片,汾州小片,汾阳,37.265419,111.787771
528,MCPDict,孝義下堡,孝義下堡話,山西,吕梁,孝义,下堡,,晋语,,幷州片,,孝义下堡,37.154766,111.590786
529,MCPDict,孝義白壁關,孝義白壁關話,山西,吕梁,孝义,髙阳,白壁关,晋语,,幷州片,,孝义白壁关,37.141314,111.714367
530,MCPDict,孝義,孝義話,山西,吕梁,孝义,旧城,,晋语,,幷州片,,孝义,37.145062,111.777873
531,MCPDict,平遙,平遙話,山西,晋中,平遥,,,晋语,,幷州片,,平遥,37.20379,112.177104
532,MCPDict,介休張蘭,介休張蘭話,山西,晋中,介休,张兰,,晋语,,幷州片,,介休张兰,37.130464,112.072931
533,MCPDict,介休,介休話,山西,晋中,介休,,,晋语,,幷州片,,介休,37.036054,111.915614
534,MCPDict,介休張良,介休張良話,山西,晋中,介休,连福,张良,晋语,,幷州片,,介休张良,37.063939,112.013856
535,MCPDict,沁源王陶,沁源王陶話,山西,长治,沁源,王陶,,晋语,,幷州片,,沁源王陶,36.879321,112.195173
536,MCPDict,沁源,沁源話,山西,长治,沁源,,,晋语,,上党片,长治小片,沁源,36.498735,112.336162
537,MCPDict,安澤荊村,安澤荊村話,山西,临汾,安泽,和川,荆村,晋语,,上党片,长治小片,安泽荆村,36.259234,112.280394
538,MCPDict,石樓,石樓話,山西,吕梁,石楼,,,晋语,,吕梁片,汾州小片,石楼,37.004228,110.841309
539,MCPDict,石樓前山,石樓前山話,山西,吕梁,石楼,前山,,晋语,,吕梁片,汾州小片,石楼前山,36.988297,110.466428
540,MCPDict,石樓曹家垣,石樓曹家垣話,山西,吕梁,石楼,曹家垣,,晋语,,吕梁片,汾州小片,石楼曹家垣,37.210382,110.694675
541,MCPDict,離石,離石話,山西,吕梁,离石,,,晋语,,吕梁片,汾州小片,离石,37.520962,111.135554
542,MCPDict,中陽,中陽話,山西,吕梁,中阳,,,晋语,,吕梁片,汾州小片,中阳,37.357292,111.181072
543,MCPDict,臨縣,臨縣話,山西,吕梁,临县,,,晋语,,吕梁片,汾州小片,临县,37.953838,110.993974
544,MCPDict,臨縣車趕,臨縣車趕話,山西,吕梁,临县,车赶,,晋语,,吕梁片,汾州小片,临县车赶,37.788083,111.077562
545,MCPDict,臨縣三交,臨縣三交話,山西,吕梁,临县,三交,,晋语,,吕梁片,汾州小片,临县三交,37.779679,110.962514
546,MCPDict,臨縣前柏塔,臨縣前柏塔話,山西,吕梁,临县,刘家会,前柏塔,晋语,,吕梁片,汾州小片,临县前柏塔,37.818508,110.894996
547,MCPDict,吳堡,吳堡東王家山話,陕西,楡林,吴堡,寇家塬,东王家山,晋语,,吕梁片,汾州小片,吴堡,37.552024,110.731647
548,MCPDict,葭縣,葭縣話,陕西,楡林,佳县,佳芦,,晋语,,吕梁片,汾州小片,葭县,38.037811,110.493572
549,MCPDict,興縣,興縣話,山西,吕梁,兴县,,,晋语,,吕梁片,汾州小片,兴县,38.462225,111.126397
550,MCPDict,嵐縣,嵐縣話,山西,吕梁,岚县,,,晋语,,吕梁片,汾州小片,岚县,38.279142,111.671921
551,MCPDict,延安,延安話,陕西,延安,宝塔,,,晋语,,志延片,,延安,36.642887,109.505211
552,MCPDict,淸澗解家溝,淸澗解家溝話,陕西,楡林,淸涧,解家沟,,晋语,,吕梁片,汾州小片,淸涧解家沟,37.217142,110.497063
553,MCPDict,子洲周家嶮,子洲周家嶮話,陕西,楡林,子洲,周家硷,,晋语,,五台片,,子洲周家崄,37.578282,109.750582
554,MCPDict,河曲,河曲話,山西,忻州,河曲,文笔,,晋语,,五台片,,河曲,39.386212,111.157603
555,MCPDict,偏關,偏關話,山西,忻州,偏关,新关,,晋语,,五台片,,偏关,39.437252,111.508728
556,MCPDict,靈壽南營,靈壽南營話,河北,石家庄,灵寿,南营,,晋语,,张呼片,,灵寿南营,38.657593,113.945317
557,MCPDict,和順橫嶺,和順橫嶺話,山西,晋中,和顺,横岭,,晋语,,大包片,,和顺横岭,37.309058,113.185585
558,MCPDict,和順馬坊,和順馬坊話,山西,晋中,和顺,马坊,,晋语,,大包片,,和顺马坊,37.539462,113.248806
559,MCPDict,大同,大同話,山西,大同,,,,晋语,,大包片,,大同,40.255852,113.140132
560,MCPDict,繁峙,繁峙話,山西,忻州,繁峙,,,晋语,,五台片,,繁峙,39.196581,113.274862
561,MCPDict,涼城,涼城話,内蒙古,乌兰察布,凉城,,,晋语,,张呼片,,凉城,40.537163,112.507151
562,MCPDict,涿鹿礬山,涿鹿礬山話,河北,张家口,涿鹿,矾山,,晋语,,张呼片,,涿鹿矾山,40.233962,115.445418
563,MCPDict,陽原化稍營,陽原化稍營話,河北,张家口,阳原,化稍营,,晋语,,张呼片,,阳原化稍营,40.256158,114.632166
564,MCPDict,銀川,銀川話,宁夏,银川,,,,官话,兰银官话,银吴片,,银川,38.473141,106.242842
565,MCPDict,中衛迎水橋,中衛迎水橋話,宁夏,中卫,沙坡头,迎水桥,,官话,兰银官话,银吴片,,中卫迎水桥,37.512983,105.14035
566,MCPDict,中衛永康,中衛永康話,宁夏,中卫,沙坡头,永康,,官话,兰银官话,银吴片,,中卫永康,37.477798,105.352116
567,MCPDict,中衛宣和,中衛宣和話,宁夏,中卫,沙坡头,宣和,,官话,兰银官话,银吴片,,中卫宣和,37.476988,105.443072
568,MCPDict,中衛香山,中衛香山話,宁夏,中卫,沙坡头,香山,,官话,兰银官话,银吴片,,中卫香山,37.075895,105.093701
569,MCPDict,中寧舟塔,中寧舟塔話,宁夏,中卫,中宁,舟塔,,官话,兰银官话,银吴片,,中宁舟塔,37.488212,105.634292
570,MCPDict,杭州,杭州話語,浙江,杭州,,,,吴语,,太湖片,杭州小片,杭州,30.242552,120.169223
571,MCPDict,建德官話,建德官話(浙江方言),浙江,杭州,建德,梅城,,官话,官话,方言岛,,建德官话,29.558239,119.525561
572,MCPDict,壽昌官話,壽昌官話(浙江方言),浙江,杭州,建德,寿昌,,官话,官话,方言岛,,寿昌官话,29.362124,119.220007
573,MCPDict,江山廿八都,江山廿八都正字,浙江,衢州,江山,廿八都,,官话,官话,方言岛,,江山廿八都,28.298014,118.489754
574,MCPDict,靖州,靖州話,湖南,怀化,靖州,,,官话,西南官话,湖广片,黎靖小片,靖州,26.575052,109.696311
575,MCPDict,通道雙江,通道雙江縣溪話,湖南,怀化,通道,,,官话,西南官话,湖广片,黎靖小片,通道双江,26.15321,109.7816
576,MCPDict,城步長安營,城步長安營軍話,湖南,邵阳,城步,长安营,,官话,西南官话,湖广片,黎靖小片,城步长安营,26.26967,110.10152
577,MCPDict,1935永明,1935永明（江永）官話,湖南,永州,江永,,,官话,西南官话,桂柳片,湘南小片,1935永明,25.280577,111.349902
578,MCPDict,道縣官話,道縣官話,湖南,永州,道县,,,官话,西南官话,桂柳片,湘南小片,道县官话,25.53253,111.607404
579,MCPDict,寧遠官話,寧遠舜陵(城關)官話,湖南,永州,宁远,,,官话,西南官话,桂柳片,湘南小片,宁远官话,25.577117,111.952328
580,MCPDict,藍山官話,藍山塔峯(城關)官話,湖南,永州,蓝山,,,官话,西南官话,桂柳片,湘南小片,蓝山官话,25.375754,112.203116
581,MCPDict,臨武官話,臨武型官話,湖南,郴州,临武,,,官话,西南官话,桂柳片,湘南小片,临武官话,25.282896,112.570721
582,MCPDict,宜章,宜章話,湖南,郴州,宜章,,,官话,西南官话,桂柳片,湘南小片,宜章,25.400491,112.960651
583,MCPDict,郴州,郴州話,湖南,郴州,,,,官话,西南官话,桂柳片,湘南小片,郴州,25.81137,113.03139
584,MCPDict,桂陽,桂陽話,湖南,郴州,桂阳,,,官话,西南官话,桂柳片,湘南小片,桂阳,25.282896,112.570721
585,MCPDict,桂陽樟市,桂陽樟市話,湖南,郴州,桂阳,樟市,,土话,,湘南片,,桂阳樟市,25.840415,112.774288
586,MCPDict,桂林,桂林官話,广西,桂林,,,,官话,西南官话,桂柳片,桂北小片,桂林,25.280913,110.301182
587,MCPDict,田林浪平,田林浪平髙山漢話,广西,百色,田林,浪平,,官话,西南官话,桂柳片,桂北小片,田林浪平,24.489414,106.368537
588,MCPDict,象州納祿,象州納祿話,广西,来宾,象州,罗秀,纳禄,官话,西南官话,桂柳片,桂北小片,象州纳禄,24.064672,109.848782
589,MCPDict,象州中平,象州中平話,广西,来宾,象州,中平,,官话,西南官话,桂柳片,桂北小片,象州中平,24.009379,109.948761
590,MCPDict,富川,富川富陽話,广西,贺州,富川,富阳,,官话,西南官话,桂柳片,桂北小片,富川,24.814142,111.305435
591,MCPDict,富川龍岩,富川柳家龍岩富陽話,广西,贺州,富川,柳家,龙岩,官话,西南官话,桂柳片,桂北小片,富川龙岩,24.759276,111.272729
592,MCPDict,富川秀山,富川古城秀山富陽話,广西,贺州,富川,古城,秀山,官话,西南官话,桂柳片,桂北小片,富川秀山,24.80657,111.381937
593,MCPDict,富山水寨,富川蓮山水寨富陽話,广西,贺州,富川,莲山,水寨,官话,西南官话,桂柳片,桂北小片,富山水寨,24.773227,111.380769
594,MCPDict,富山水谷,富川朝東水谷富陽話,广西,贺州,富川,朝东,水谷,官话,西南官话,桂柳片,桂北小片,富山水谷,25.000988,111.171434
595,MCPDict,扶綏那密,扶綏那密官話,广西,崇左,扶绥,新宁,那密,官话,西南官话,桂柳片,桂南小片,扶绥那密,22.619943,107.922191
596,MCPDict,賓陽軍話,賓陽南街官話,广西,南宁,宾阳,新宾,南街,官话,西南官话,桂柳片,桂南小片,宾阳军话,23.224099,108.816714
597,MCPDict,武鳴城廂軍話,武鳴城廂街上官話,广西,南宁,武鸣,城厢,,官话,西南官话,桂柳片,桂南小片,武鸣城厢军话,23.158661,108.274612
598,MCPDict,舊時正,電白華樓舊時正話,广东,茂名,电白,林头,华楼,官话,官话,方言岛,,旧时正,21.619245,111.083329
599,MCPDict,欽州正,欽州正話,广西,钦州,钦南,龙门港,,官话,官话,方言岛,,钦州正,21.746218,108.551281
600,MCPDict,贛州,贛州官話,江西,赣州,,,,官话,官话,方言岛,,赣州,25.820899,114.924234
601,MCPDict,信豐,信豐官話,江西,赣州,信丰,,,官话,官话,方言岛,,信丰,25.386172,114.922851
602,MCPDict,南平,南平官話,福建,南平,延平,,,官话,官话,方言岛,,南平,26.637981,118.182022
603,MCPDict,長樂洋嶼,長樂洋嶼官話,福建,福州,长乐,航城街道,洋屿,官话,官话,方言岛,,长乐洋屿,26.007646,119.509055
604,MCPDict,東方八所,東方八所軍話,海南,/,东方,八所,名山,官话,官话,方言岛,,东方八所,19.100485,108.639754
605,MCPDict,祁門軍話,祁門軍話,安徽,黄山,祁门,安凌,赤岭,官话,官话,方言岛,,祁门军话,30.049407,117.578233
606,MCPDict,威寧龍場,威寧龍場漢話,贵州,毕节,威宁,龙场,,官话,西南官话,云南片,滇中小片,威宁龙场,26.648349,104.547219
607,MCPDict,曲靖茨營,曲靖茨營漢話,云南,曲靖,麒麟,茨营,海三凹,官话,西南官话,云南片,滇中小片,曲靖茨营,25.342436,103.943747
608,MCPDict,昆明,昆明漢話,云南,昆明,五华,华山街道,,官话,西南官话,云南片,滇中小片,昆明,25.046432,102.709372
609,MCPDict,富民,富民漢話,云南,昆明,富民,,,官话,西南官话,云南片,滇中小片,富民,25.228869,102.509936
610,MCPDict,富民款莊,富民款莊漢話,云南,昆明,富民,款庄,,官话,西南官话,云南片,滇中小片,富民款庄,25.455093,102.681404
611,MCPDict,建水,建水漢話,云南,红河,建水,临安镇,,官话,西南官话,云南片,滇南小片,建水,23.618999,102.821784
612,MCPDict,康定,康定漢話,四川,甘孜,康定,,,官话,西南官话,川西片,康藏小片,康定,30.004495,101.963055
613,MCPDict,犍爲,犍爲話,四川,乐山,犍为,玉津,,官话,西南官话,西蜀片,岷赤小片,犍为,29.201101,103.951011
614,MCPDict,榮縣,榮縣話,四川,自贡,荣县,,,官话,西南官话,西蜀片,江贡小片,荣县,29.456111,104.419167
615,MCPDict,綦江,綦江話,重庆,/,綦江,古南,,官话,西南官话,西蜀片,岷赤小片,綦江,29.018056,106.656389
616,MCPDict,桐梓,桐梓話,贵州,遵义,桐梓,娄山关,,官话,西南官话,西蜀片,岷赤小片,桐梓,28.114953,106.837232
617,MCPDict,遵義,遵義話,贵州,遵义,红花岗,,,官话,西南官话,西蜀片,岷赤小片,遵义,27.709444,106.941389
618,MCPDict,思南,思南話,贵州,铜仁,思南,,,官话,西南官话,西蜀片,岷赤小片,思南,27.938463,108.253236
619,MCPDict,思南塘頭,思南塘頭話,贵州,铜仁,思南,塘头,,官话,西南官话,西蜀片,岷赤小片,思南塘头,27.73367,108.194969
620,MCPDict,沿河,沿河縣城話,贵州,铜仁,沿河,,,官话,西南官话,西蜀片,岷赤小片,沿河,28.570862,108.509332
621,MCPDict,婺川,婺川話,贵州,遵义,婺川,,,官话,西南官话,西蜀片,岷赤小片,婺川,28.56336,107.899128
622,MCPDict,道眞,道眞話,贵州,遵义,道真,,,官话,西南官话,川黔片,成渝小片,道真,28.87194,107.614305
623,MCPDict,金沙,金沙漢話,贵州,毕节,金沙,,,官话,西南官话,川黔片,成渝小片,金沙,27.466636,106.227016
624,MCPDict,水城,六盤水市區話,贵州,六盘水,钟山,,,官话,西南官话,川黔片,成渝小片,水城,26.590009,104.854558
625,MCPDict,水城陡菁,水城陡菁話,贵州,六盘水,水城,陡菁,,官话,西南官话,川黔片,成渝小片,水城陡菁,26.481316,105.135445
626,MCPDict,水城玉舍,水城玉舍話,贵州,六盘水,水城,玉舍,,官话,西南官话,川黔片,成渝小片,水城玉舍,26.498391,104.785839
627,MCPDict,貴陽,貴陽漢話,贵州,贵阳,云岩,毓秀路街道,团结巷社区,官话,西南官话,川黔片,黔中小片,贵阳,26.591639,106.717428
628,MCPDict,六枝朗岱,六枝郞岱話,贵州,六盘水,六枝,郎岱,,官话,西南官话,川黔片,黔中小片,六枝朗岱,26.092166,105.355188
629,MCPDict,六枝岩脚,六枝岩脚話,贵州,六盘水,六枝,岩脚,,官话,西南官话,川黔片,黔中小片,六枝岩脚,26.355872,105.412072
630,MCPDict,水城營盤,水城營盤話,贵州,六盘水,水城,营盘,,官话,西南官话,川黔片,黔中小片,水城营盘,26.171704,104.730908
631,MCPDict,盤縣響水,盤縣響水話,贵州,六盘水,盘州,响水,,官话,西南官话,川黔片,黔中小片,盘县响水,25.473767,104.593087
632,MCPDict,盤縣鷄場坪,盤縣鷄場坪話,贵州,六盘水,盘州,鸡场坪,,官话,西南官话,川黔片,黔中小片,盘县鸡场坪,25.971227,104.645266
633,MCPDict,成都,成都話,四川,成都,,,,官话,西南官话,川黔片,成渝小片,成都,30.671974,104.071595
634,MCPDict,資中,資中話,四川,内江,资中,,,官话,西南官话,川黔片,成渝小片,资中,29.772994,104.861079
635,MCPDict,遂寧觀音,遂寧觀音話,四川,遂宁,安居,观音,,官话,西南官话,川黔片,成渝小片,遂宁观音,30.484019,105.362618
636,MCPDict,南充,南充話,四川,南充,,,,官话,西南官话,川黔片,成渝小片,南充,30.837793,106.110698
637,MCPDict,西充仁和,西充仁和話,四川,南充,西充,仁和,,官话,西南官话,川黔片,成渝小片,西充仁和,31.04699,105.76629
638,MCPDict,鎭巴,鎭巴話,陕西,汉中,镇巴,,,官话,西南官话,川黔片,陕南小片,镇巴,32.538462,107.891132
639,MCPDict,萬源,萬源話,四川,达州,万源,,,官话,西南官话,川黔片,成渝小片,万源,32.087656,108.041032
640,MCPDict,重慶,重慶話,重庆,/,重庆,,,官话,西南官话,川黔片,成渝小片,重庆,29.564472,106.560162
641,MCPDict,長壽,長壽話,重庆,/,长寿,,,官话,西南官话,川黔片,成渝小片,长寿,29.860567,107.077912
642,MCPDict,忠縣石寶,忠縣石寶話,重庆,/,忠县,石宝,,官话,西南官话,川黔片,成渝小片,忠县石宝,30.427014,108.203694
643,MCPDict,利川,利川話,湖北,恩施,利川,,,官话,西南官话,湖广片,鄂中小片,利川,30.296206,108.941327
644,MCPDict,恩施,恩施話,湖北,恩施,,,,官话,西南官话,湖广片,鄂中小片,恩施,30.294904,109.486544
645,MCPDict,巴東,巴東話,湖北,恩施,巴东,,,官话,西南官话,湖广片,鄂中小片,巴东,31.048559,110.350454
646,MCPDict,永順,永順話,湖南,湘西,永顺,,,官话,西南官话,湖广片,湘西小片,永顺,29.00103,109.85266
647,MCPDict,古丈大客話,古丈大客話,湖南,湘西,古丈,,,官话,西南官话,湖广片,湘西小片,古丈大客话,28.61282,109.94861
648,MCPDict,沅陵,沅陵城關官話,湖南,怀化,沅陵,,,官话,西南官话,湖广片,湘西小片,沅陵,28.461129,110.412546
649,MCPDict,花垣,花垣話,湖南,湘西,花垣,,,官话,西南官话,湖广片,湘西小片,花垣,28.431708,109.439129
650,MCPDict,吉首,吉首話,湖南,湘西,吉首,,,官话,西南官话,湖广片,湘西小片,吉首,28.268632,109.704558
651,MCPDict,五峯,五峯話,湖北,宜昌,五峰,,,官话,西南官话,湖广片,鄂中小片,五峰,30.162495,111.080326
652,MCPDict,宜昌,宜昌話,湖北,宜昌,西陵区,,,官话,西南官话,湖广片,鄂中小片,宜昌,30.702636,111.702636
653,MCPDict,枝江,枝江話,湖北,宜昌,枝江,,,官话,西南官话,湖广片,鄂中小片,枝江,30.437461,111.766832
654,MCPDict,荊州觀音壋,荊州觀音壋話,湖北,荆州,沙市,观音垱,,官话,西南官话,湖广片,鄂中小片,荆州观音垱,30.35978,112.40688
655,MCPDict,江陵,江陵話,湖北,荆州,江陵,,,官话,西南官话,湖广片,鄂中小片,江陵,30.041822,112.424664
656,MCPDict,宜城,宜城話,湖北,襄阳,宜城,鄢城,,官话,西南官话,湖广片,鄂中小片,宜城,31.722521,112.264033
657,MCPDict,鄖西上津,鄖西上津話,湖北,十堰,郧西,上津,,官话,西南官话,湖广片,鄂北小片,郧西上津,33.14234,110.0433
658,MCPDict,鄖縣,鄖縣話,湖北,十堰,郧阳,,,官话,西南官话,湖广片,鄂北小片,郧县,32.844482,110.820291
659,MCPDict,十堰,十堰話,湖北,十堰,,,,官话,西南官话,湖广片,鄂北小片,十堰,32.635063,110.805104
660,MCPDict,保康,保康話,湖北,襄阳,保康,,,官话,西南官话,湖广片,鄂北小片,保康,31.885073,111.267731
661,MCPDict,隨州淅河,隨州淅河話,湖北,随州,曾都,淅河,,官话,西南官话,湖广片,鄂北小片,随州淅河,31.68302,113.480738
662,MCPDict,洪湖,洪湖話,湖北,荆州,洪湖,,,官话,西南官话,湖广片,鄂中小片,洪湖,29.834274,113.480824
663,MCPDict,漢川脈旺,漢川脈旺話,湖北,孝感,汉川,脉旺,,官话,西南官话,湖广片,鄂中小片,汉川脉旺,30.506334,113.609052
664,MCPDict,武昌,武昌話,湖北,武汉,武昌,,,官话,西南官话,湖广片,鄂中小片,武昌,30.58903,114.029192
665,MCPDict,孝昌花園,孝昌花園話,湖北,孝感,孝昌,花园,,官话,江淮官话,黄孝片,,孝昌花园,31.258754,113.966783
666,MCPDict,孝昌小河,孝昌小河話,湖北,孝感,孝昌,小河,,官话,江淮官话,黄孝片,,孝昌小河,31.348016,114.069131
667,MCPDict,大悟,大悟話,湖北,孝感,大悟,,,官话,江淮官话,黄孝片,,大悟,31.567465,114.133531
668,MCPDict,紅安,紅安話,湖北,黄冈,红安,,,官话,江淮官话,黄孝片,,红安,31.293309,114.625582
669,MCPDict,新洲,新洲話,湖北,武汉,新洲,,,官话,江淮官话,黄孝片,,新洲,30.846748,114.810989
670,MCPDict,羅田三里畈,羅田三里畈話,湖北,黄冈,罗田,三里畈,,官话,江淮官话,黄孝片,,罗田三里畈,30.838924,115.281559
671,MCPDict,羅田大河岸,羅田大河岸話,湖北,黄冈,罗田,大河岸,,官话,江淮官话,黄孝片,,罗田大河岸,30.849656,115.492309
672,MCPDict,蘄春靑石,蘄春靑石話,湖北,黄冈,蕲春,青石,樟树,官话,江淮官话,黄孝片,,蕲春靑石,30.32249,115.69561
673,MCPDict,柞水柴莊,柞水柴莊下湖話,陕西,商洛,柞水,柴庄,,官话,江淮官话,竹柞片,,柞水柴庄,33.455769,109.578944
674,MCPDict,白河茅坪,白河茅坪下湖話,陕西,安康,白河,茅坪,,官话,江淮官话,竹柞片,,白河茅坪,32.711399,109.935819
675,MCPDict,公安章莊鋪,公安章莊鋪話,湖北,荆州,公安,章庄铺,,官话,西南官话,湖广片,湘北小片,公安章庄铺,29.895386,111.941297
676,MCPDict,鶴峯走馬,鶴峯走馬話,湖北,恩施,鹤峰,走马,,官话,西南官话,湖广片,湘北小片,鹤峰走马,29.81736,110.42307
677,MCPDict,桑植,桑植話,湖南,张家界,桑植,,,官话,西南官话,湖广片,鄂中小片,桑植,29.406678,110.167254
678,MCPDict,大庸北,大庸[張家界]城北話（老城區）,湖南,张家界,永定,崇文,,官话,西南官话,湖广片,鄂中小片,大庸北,29.12854,110.48731
679,MCPDict,大庸南,大庸[張家界]城南話（新城區）,湖南,张家界,永定,南庄坪,,官话,西南官话,湖广片,鄂中小片,大庸南,29.10866,110.4685
680,MCPDict,龍山,龍山話,湖南,湘西,龙山,,,官话,西南官话,湖广片,湘西小片,龙山,29.460852,109.451277
681,MCPDict,新晃凳寨,新晃凳寨話,湖南,怀化,新晃,凳寨,,官话,西南官话,湖广片,怀玉小片,新晃凳寨,27.038238,108.892042
682,MCPDict,羅山,羅山話,河南,信阳,罗山,,,官话,中原官话,信蚌片,,罗山,32.209395,114.521538
683,MCPDict,羅山周黨,羅山周黨話,河南,信阳,罗山,周党,,官话,中原官话,信蚌片,,罗山周党,31.904055,114.536916
684,MCPDict,光山斛山,光山斛山話,河南,信阳,光山,斛山,,官话,中原官话,信蚌片,,光山斛山,31.907077,115.022728
685,MCPDict,吳江菀坪,吳江菀坪河南話,江苏,苏州,吴江,,,官话,中原官话,信蚌片,,吴江菀坪,31.073051,120.614527
686,MCPDict,常德,常德話,湖南,常德,,,,官话,西南官话,湖广片,湘北小片,常德,29.037477,111.705266
687,MCPDict,常德前河,常德鼎城前河話,湖南,常德,鼎城,,,官话,西南官话,湖广片,湘北小片,常德前河,28.73905,111.67055
688,MCPDict,漢壽,漢壽龍陽(城關)話,湖南,常德,汉寿,,,官话,西南官话,湖广片,湘北小片,汉寿,28.911842,111.976991
689,MCPDict,桃源,桃源漳江(城關)話,湖南,常德,桃源,漳江街道,,官话,西南官话,湖广片,湘北小片,桃源,28.895462,111.475115
690,MCPDict,澧縣,澧縣澧陽(城關)話,湖南,常德,澧县,,,官话,西南官话,湖广片,湘北小片,澧县,29.639252,111.765191
691,MCPDict,安鄕,安鄕深柳(城關)話,湖南,常德,安鄕,,,官话,西南官话,湖广片,湘北小片,安鄕,29.416566,112.176933
692,MCPDict,津市,津市城關話,湖南,常德,津市,,,官话,西南官话,湖广片,湘北小片,津市,29.611331,111.884008
693,MCPDict,津市渡口,津市渡口話,湖南,常德,津市,渡口,,官话,西南官话,湖广片,湘北小片,津市渡口,29.329577,111.948772
694,MCPDict,臨澧,臨澧城關話,湖南,常德,临澧,,,官话,西南官话,湖广片,湘北小片,临澧,29.446879,111.654079
695,MCPDict,石門,石門楚江(城關)話,湖南,常德,石门,,,官话,西南官话,湖广片,湘北小片,石门,29.590676,111.386011
696,MCPDict,慈利,慈利零陽(城關)話,湖南,张家界,慈利,,,官话,西南官话,湖广片,湘北小片,慈利,29.436397,111.146036
697,MCPDict,桑植芙蓉橋,桑植芙蓉橋話,湖南,张家界,桑植,芙蓉桥,,官话,西南官话,湖广片,鄂中小片,桑植芙蓉桥,29.515033,110.307108
698,MCPDict,廣濟花橋,廣濟[武穴]花橋話,湖北,黄冈,武穴,花桥,,官话,江淮官话,黄孝片,,广济花桥,30.005899,115.724721
699,MCPDict,九江,九江話,江西,九江,,,,官话,江淮官话,黄孝片,,九江,29.708831,115.982506
700,MCPDict,九江新塘,九江新塘話,江西,九江,柴桑,新塘,,官话,江淮官话,黄孝片,,九江新塘,29.620817,115.734312
701,MCPDict,安康牛蹄,安康牛蹄江南話,陕西,安康,汉滨区,牛蹄,,赣语,,怀岳片,,安康牛蹄,32.718242,108.520098
702,MCPDict,紫陽漢王,紫陽漢王江南話,陕西,安康,紫阳,汉王,,赣语,,怀岳片,,紫阳汉王,32.720559,108.453124
703,MCPDict,彭澤,彭澤話,江西,九江,彭泽,,,赣语,,鹰弋片,,彭泽,29.879555,116.559327
704,MCPDict,太湖,太湖話,安徽,安庆,太湖,城西,,赣语,,怀岳片,,太湖,30.460769,116.319343
705,MCPDict,望江,望江話,安徽,安庆,望江,太慈,,赣语,,怀岳片,,望江,30.130981,116.701368
706,MCPDict,宿松,宿松話,安徽,安庆,宿松,二郎,,赣语,,怀岳片,,宿松,30.173473,116.129254
707,MCPDict,岳西,岳西話,安徽,安庆,岳西,,,赣语,,怀岳片,,岳西,30.851857,116.354652
708,MCPDict,潛山,潛山話,安徽,安庆,潜山,,,赣语,,怀岳片,,潜山,30.639729,116.576719
709,MCPDict,懷寧石牌,懷寧石牌話,安徽,安庆,怀宁,石牌,,赣语,,怀岳片,,怀宁石牌,30.416427,116.647459
710,MCPDict,懷寧公嶺,懷寧公嶺話,安徽,安庆,怀宁,公岭,,赣语,,怀岳片,,怀宁公岭,30.68714,116.75001
711,MCPDict,懷寧髙河,懷寧髙河話,安徽,安庆,怀宁,髙河,髙埠老街,赣语,,怀岳片,,怀宁髙河,30.726564,116.824707
712,MCPDict,懷寧馬廟,懷寧馬廟話,安徽,安庆,怀宁,马庙,,赣语,,怀岳片,,怀宁马庙,30.783611,116.778333
713,MCPDict,懷寧人形河,懷寧人形河話,安徽,安庆,怀宁,髙河,人形河社区,赣语,,怀岳片,,怀宁人形河,30.801343,116.864518
714,MCPDict,東至大渡口,東至大渡口話,安徽,池州,东至,大渡口,,赣语,,怀岳片,,东至大渡口,30.489034,117.061161
715,MCPDict,安慶海口,安慶海口話,安徽,安庆,大观区,海口,,赣语,,怀岳片,,安庆海口,30.480076,116.94784
716,MCPDict,安慶,安慶話,安徽,安庆,大观区,老城区,西门,官话,江淮官话,黄孝片,,安庆,30.507107,117.025693
717,MCPDict,桐城,桐城話,安徽,安庆,桐城,,,官话,江淮官话,黄孝片,,桐城,31.038226,116.968962
718,MCPDict,桐城南,桐城南部話,安徽,安庆,桐城,新渡,,官话,江淮官话,黄孝片,,桐城南,30.849828,116.882252
719,MCPDict,樅陽,樅陽話,安徽,铜陵,枞阳,,,官话,江淮官话,黄孝片,,枞阳,30.705842,117.212733
720,MCPDict,樅陽東,樅陽東部話,安徽,铜陵,郊区,陈瑶湖,,官话,江淮官话,黄孝片,,枞阳东,30.864628,117.626356
721,MCPDict,廬江南,廬江南部話,安徽,合肥,庐江,罗河,,官话,江淮官话,黄孝片,,庐江南,31.013926,117.281314
722,MCPDict,靑陽客籍話,靑陽客籍話,安徽,池州,靑阳,靑阳,,官话,江淮官话,洪巢片,,靑阳客籍话,30.662556,117.882844
723,MCPDict,石埭七里,石埭七里話,安徽,池州,石台,城关七里,,官话,江淮官话,洪巢片,,石埭七里,30.212248,117.484656
724,MCPDict,廬江,廬江話,安徽,合肥,庐江,庐城,,官话,江淮官话,洪巢片,,庐江,31.258098,117.281745
725,MCPDict,無爲牛埠,無爲牛埠話,安徽,芜湖,无为,牛埠,,官话,江淮官话,洪巢片,,无为牛埠,31.055806,117.653051
726,MCPDict,巢湖,巢湖話,安徽,合肥,巢湖,,,官话,江淮官话,洪巢片,,巢湖,31.627503,117.884239
727,MCPDict,肥東,肥東話,安徽,合肥,肥东,,,官话,江淮官话,洪巢片,,肥东,31.877133,117.477195
728,MCPDict,合肥,合肥話,安徽,合肥,,,,官话,江淮官话,洪巢片,,合肥,31.825351,117.231716
729,MCPDict,肥西,肥西話,安徽,合肥,肥西,,,官话,江淮官话,洪巢片,,肥西,31.713382,117.177848
730,MCPDict,舒城萬佛湖,舒城萬佛湖話,安徽,六安,舒城,万佛湖,,官话,江淮官话,洪巢片,,舒城万佛湖,31.346217,116.784452
731,MCPDict,岳西姚河,岳西姚河話,安徽,安庆,岳西,姚河,,官话,江淮官话,洪巢片,,岳西姚河,31.168826,116.54506
732,MCPDict,鳳陽,鳳陽話,安徽,滁州,凤阳,,,官话,中原官话,信蚌片,,凤阳,32.881511,117.538419
733,MCPDict,淮南,淮南話,安徽,淮南,,,,官话,江淮官话,洪巢片,,淮南,32.591577,117.024941
734,MCPDict,滁州,滁州話,安徽,滁州,,,,官话,江淮官话,洪巢片,,滁州,32.262231,118.339852
735,MCPDict,南京,南京話,江苏,南京,,,,官话,江淮官话,洪巢片,,南京,32.056215,118.787043
736,MCPDict,當塗,當塗話,安徽,马鞍山,当涂,,,官话,江淮官话,洪巢片,,当涂,31.572288,118.492823
737,MCPDict,當塗霍里,當塗霍里話,安徽,马鞍山,花山,霍里,,官话,江淮官话,洪巢片,,当涂霍里,31.674488,118.513461
738,MCPDict,江寧橫溪,江寧橫溪話,江苏,南京,江宁,,,官话,江淮官话,洪巢片,,江宁横溪,31.723009,118.777118
739,MCPDict,丹徒大港,丹徒大港話,江苏,镇江,京口,大港,,官话,江淮官话,洪巢片,,丹徒大港,32.195991,119.673916
740,MCPDict,丹徒姚橋,丹徒姚橋話,江苏,镇江,京口,姚桥,,官话,江淮官话,洪巢片,,丹徒姚桥,32.165878,119.781145
741,MCPDict,丹陽埤城,丹陽埤城話,江苏,镇江,丹阳,埤城,,吴语,,太湖片,毗陵小片,丹阳埤城,32.117576,119.713009
742,MCPDict,句容,句容話,江苏,镇江,句容,,,官话,江淮官话,洪巢片,,句容,31.947823,119.163397
743,MCPDict,溧水,溧水話,江苏,南京,溧水,,,吴语,,太湖片,毗陵小片,溧水,31.682606,119.036712
744,MCPDict,郞溪定埠,郞溪定埠話,安徽,宣城,郎溪,定埠,,吴语,,太湖片,毗陵小片,郞溪定埠,31.290542,119.166878
745,MCPDict,郞溪,郞溪話,安徽,宣城,郎溪,,,吴语,,太湖片,毗陵小片,郞溪,31.149342,119.190731
746,MCPDict,髙淳古柏,髙淳古柏話,江苏,南京,髙淳,古柏,,吴语,,宣州片,太髙小片,髙淳古柏,31.396504,118.932911
747,MCPDict,當塗新市北,當塗新市(北)話,江苏,马鞍山,博望,新市(北),,吴语,,宣州片,太髙小片,当涂新市北,31.581909,118.745019
748,MCPDict,當塗博望,當塗博望話,江苏,马鞍山,博望,,,吴语,,宣州片,太髙小片,当涂博望,31.556771,118.825922
749,MCPDict,蕪湖六郞,蕪湖六郞話,安徽,芜湖,湾沚,六郎,,吴语,,宣州片,铜泾小片,芜湖六郞,31.251883,118.555554
750,MCPDict,宣城金寶圩,宣城金寶圩話,安徽,宣城,雁翅、裘公,,,吴语,,宣州片,铜泾小片,宣城金宝圩,31.233162,118.734875
751,MCPDict,南陵仙坊,南陵仙坊話,安徽,芜湖,南陵,许镇,仙坊,吴语,,宣州片,铜泾小片,南陵仙坊,31.053147,118.405911
752,MCPDict,南陵,南陵話,安徽,芜湖,南陵,,,吴语,,宣州片,铜泾小片,南陵,30.920012,118.340522
753,MCPDict,繁昌,繁昌話,安徽,芜湖,繁昌,繁阳,,吴语,,宣州片,铜泾小片,繁昌,31.095096,118.204851
754,MCPDict,繁昌峨橋,繁昌峨橋話,安徽,芜湖,弋江,峨桥,,吴语,,宣州片,铜泾小片,繁昌峨桥,31.172118,118.277629
755,MCPDict,銅陵,銅陵話,安徽,铜陵,,,,吴语,,宣州片,铜泾小片,铜陵,30.947021,117.816469
756,MCPDict,靑陽茗山,靑陽茗山話,安徽,池州,青阳,丁桥,茗山,吴语,,宣州片,铜泾小片,靑阳茗山,30.796985,117.883251
757,MCPDict,東海,東海話,江苏,连云港,东海,,,官话,江淮官话,洪巢片,,东海,34.548156,118.756689
758,MCPDict,海州,海州話,江苏,连云港,海州,,,官话,江淮官话,洪巢片,,海州,34.597397,119.193951
759,MCPDict,沭陽,沭陽話,江苏,宿迁,沭阳,,,官话,江淮官话,洪巢片,,沭阳,34.137016,118.798021
760,MCPDict,灌雲楊集,灌雲楊集話,江苏,连云港,灌云,杨集,,官话,江淮官话,洪巢片,,灌云杨集,34.326503,119.494176
761,MCPDict,儀徵,儀徵話,江苏,扬州,仪征,,,官话,江淮官话,洪巢片,,仪征,32.272033,119.184442
762,MCPDict,揚州,揚州話,江苏,扬州,,,,官话,江淮官话,洪巢片,,扬州,32.394632,119.431571
763,MCPDict,髙郵,髙郵話,江苏,扬州,髙邮,,,官话,江淮官话,洪巢片,,髙邮,32.798317,119.474813
764,MCPDict,寶應望直港,寶應望直港話,江苏,扬州,宝应,望直港,,官话,江淮官话,洪巢片,,宝应望直港,33.242885,119.386984
765,MCPDict,淮陰,淮陰話,江苏,淮安,淮阴,,,官话,江淮官话,洪巢片,,淮阴,33.638632,119.044874
766,MCPDict,淸江浦,淸江浦話,江苏,淮安,淸江浦,,,官话,江淮官话,洪巢片,,淸江浦,33.567097,119.039668
767,MCPDict,阜寧-濱海-射陽,阜寧-濱海-射陽話,江苏,盐城,阜宁/滨海/射阳,,,官话,江淮官话,洪巢片,,阜宁-滨海-射阳,33.759313,119.802582
768,MCPDict,建湖卞港,建湖髙作卞港話,江苏,盐城,建湖,高作,卞港,官话,江淮官话,洪巢片,,建湖卞港,33.544627,119.732124
769,MCPDict,鹽城,鹽城話,江苏,盐城,亭湖,,,官话,江淮官话,洪巢片,,盐城,33.387887,120.136582
770,MCPDict,鹽城步鳳,鹽城步鳳話,江苏,盐城,亭湖,步凤,,官话,江淮官话,洪巢片,,盐城步凤,33.335591,120.304639
771,MCPDict,鹽城西鄕,鹽城西鄕話,江苏,盐城,盐都,西鄕,,官话,江淮官话,洪巢片,,盐城西鄕,33.180953,119.818243
772,MCPDict,大豐三龍,大豐三龍話,江苏,盐城,大丰,三龙,,官话,江淮官话,洪巢片,,大丰三龙,33.420842,120.520878
773,MCPDict,興化,興化話,江苏,泰州,兴化,,,官话,江淮官话,泰如片,,兴化,32.910411,119.852722
774,MCPDict,東臺,東臺話,江苏,盐城,东台,,,官话,江淮官话,泰如片,,东台,32.853621,120.312246
775,MCPDict,泰州,泰州話,江苏,泰州,,,,官话,江淮官话,泰如片,,泰州,32.465062,119.930146
776,MCPDict,海安,海安話,江苏,南通,海安,,,官话,江淮官话,泰如片,,海安,32.535787,120.485356
777,MCPDict,泰興,泰興話,江苏,泰州,泰兴,,,官话,江淮官话,泰如片,,泰兴,32.172584,120.053429
778,MCPDict,靖江新橋,靖江新橋話（靖江沙上話）,江苏,泰州,靖江,新桥,,官话,江淮官话,泰如片,,靖江新桥,32.001612,120.095204
779,MCPDict,靖江東興,靖江東興話（靖江沙上話）,江苏,泰州,靖江,东兴,,官话,江淮官话,泰如片,,靖江东兴,31.986466,120.166156
780,MCPDict,揚中,揚中話,江苏,镇江,扬中,,,官话,江淮官话,泰如片,,扬中,32.240982,119.805496
781,MCPDict,如皋如城,如皋如城話,江苏,南通,如皋,如城,,官话,江淮官话,泰如片,,如皋如城,32.381525,120.567765
782,MCPDict,如東豐利,如東豐利話,江苏,南通,如东,丰利,,官话,江淮官话,泰如片,,如东丰利,32.451422,121.043385
783,MCPDict,如東大豫,如東大豫話,江苏,南通,如东,大豫,,官话,江淮官话,泰如片,,如东大豫,32.278003,121.299905
784,MCPDict,南通,南通話,江苏,南通,,,,官话,江淮官话,泰如片,,南通,32.009862,120.857372
785,MCPDict,通州金沙,通州金沙話,江苏,南通,通州,金沙,,吴语,,太湖片,毗陵小片,通州金沙,32.086091,121.082015
786,MCPDict,通東餘東,海門餘東話,江苏,南通,海门,余东、正余、包场,,吴语,,太湖片,毗陵小片,通东余东,32.05449,121.211816
787,MCPDict,通東呂四,啓東呂四話,江苏,南通,启东,吕四,,吴语,,太湖片,毗陵小片,通东吕四,32.066191,121.609176
788,MCPDict,靖江,靖江話（靖江老岸話）,江苏,泰州,靖江,,,吴语,,太湖片,毗陵小片,靖江,32.014941,120.274541
789,MCPDict,丹陽,丹陽話,江苏,镇江,丹阳,,,吴语,,太湖片,毗陵小片,丹阳,32.016868,119.612819
790,MCPDict,丹陽雲陽,丹陽雲陽話,江苏,镇江,丹阳,云阳,,吴语,,太湖片,毗陵小片,丹阳云阳,31.991945,119.589858
791,MCPDict,丹陽河陽,丹陽河陽話,江苏,镇江,丹阳,河阳,,吴语,,太湖片,毗陵小片,丹阳河阳,32.064435,119.532424
792,MCPDict,丹陽行宮,丹陽行宮話,江苏,镇江,丹阳,行宫,,吴语,,太湖片,毗陵小片,丹阳行宫,31.928672,119.454183
793,MCPDict,金壇,金壇話,江苏,常州,金坛,,,吴语,,太湖片,毗陵小片,金坛,31.723221,119.597942
794,MCPDict,溧陽,溧陽話,江苏,常州,溧阳,,,吴语,,太湖片,毗陵小片,溧阳,31.417912,119.488341
795,MCPDict,丹陽訪仙,丹陽訪仙話,江苏,镇江,丹阳,访仙,,吴语,,太湖片,毗陵小片,丹阳访仙,32.00507,119.746097
796,MCPDict,常州,常州話,江苏,常州,,,,吴语,,太湖片,毗陵小片,常州,31.789036,119.986371
797,MCPDict,江陰,江陰閒話,江苏,无锡,江阴,,,吴语,,太湖片,毗陵小片,江阴,31.907672,120.272204
798,MCPDict,江陰申港,江陰申港話,江苏,无锡,江阴,申港,,吴语,,太湖片,毗陵小片,江阴申港,31.882586,120.142493
799,MCPDict,無錫,無錫話,江苏,无锡,梁溪区,崇安寺,,吴语,,太湖片,苏嘉湖小片,无锡,31.576218,120.30021
800,MCPDict,蘇州,蘇州閒話,江苏,苏州,,,,吴语,,太湖片,苏嘉湖小片,苏州,31.302271,120.631322
801,MCPDict,江陰新橋,江陰新橋說話,江苏,无锡,江阴,新桥,马嘶,吴语,,太湖片,毗陵小片,江阴新桥,31.817892,120.51085
802,MCPDict,常熟古裡,常熟古裡說話,江苏,苏州,常熟,古里,新桥,吴语,,太湖片,苏嘉湖小片,常熟古里,31.639867,120.848603
803,MCPDict,海門,海門說話,江苏,南通,海门,,,吴语,,太湖片,上海小片,海门,31.875887,121.187969
804,MCPDict,上海,上海閒話,上海,,,,,吴语,,太湖片,上海小片,上海,31.248949,121.472549
805,MCPDict,眞如南,眞如（南部）閒話,上海,/,普陀,长征,农民新村,吴语,,太湖片,上海小片,真如南,31.242647,121.373728
806,MCPDict,松江天馬,松江天馬閒話,上海,/,松江,天马,,吴语,,太湖片,上海小片,松江天马,31.075853,121.15458
807,MCPDict,嘉善,嘉善閒話,浙江,嘉兴,嘉善,,,吴语,,太湖片,苏嘉湖小片,嘉善,30.837044,120.932135
808,MCPDict,湖州,湖州閒話,浙江,湖州,,,,吴语,,太湖片,苏嘉湖小片,湖州,30.867198,120.102398
809,MCPDict,杭州五杭,杭州五杭說話,浙江,杭州,临平,五杭,,吴语,,太湖片,苏嘉湖小片,杭州五杭,30.504218,120.281123
810,MCPDict,諸暨璜山,諸暨璜山談頭,浙江,绍兴,诸暨,璜山,,吴语,,太湖片,临绍小片,诸暨璜山,29.576301,120.338032
811,MCPDict,慈谿慈城,慈谿慈城閒話,浙江,宁波,江北,慈城,,吴语,,太湖片,临绍小片,慈谿慈城,29.984421,121.456445
812,MCPDict,寧波,寧波閒話,浙江,宁波,,,,吴语,,太湖片,甬江小片,宁波,29.876276,121.542389
813,MCPDict,北侖,北侖閒話,浙江,宁波,北仑,,,吴语,,太湖片,甬江小片,北仑,29.902389,121.840597
814,MCPDict,舟山,舟山閒話,浙江,舟山,,,,吴语,,太湖片,甬江小片,舟山,30.022146,122.102607
815,MCPDict,岱山,岱山閒話,浙江,舟山,岱山,,,吴语,,太湖片,甬江小片,岱山,30.265206,122.223001
816,MCPDict,奉化,奉化閒話,浙江,宁波,奉化,,,吴语,,太湖片,甬江小片,奉化,29.671692,121.419275
817,MCPDict,鎭海,鎭海閒話,浙江,宁波,镇海,,,吴语,,太湖片,甬江小片,镇海,29.956157,121.714033
818,MCPDict,象山鶴浦,象山鶴浦閒話,浙江,宁波,象山,鹤浦,,吴语,,太湖片,甬江小片,象山鹤浦,29.149333,121.880852
819,MCPDict,仙居,仙居話,浙江,台州,仙居,,,吴语,,台州片,,仙居,28.846831,120.728812
820,MCPDict,仙居橫溪,仙居橫溪話,浙江,台州,仙居,横溪,,吴语,,台州片,,仙居横溪,28.743412,120.485947
821,MCPDict,天台城關,天台城關話,浙江,台州,天台,,,吴语,,台州片,,天台城关,29.148001,121.021605
822,MCPDict,天台東鄕,天台東鄕話,浙江,台州,天台,苍山、北山,,吴语,,台州片,,天台东鄕,29.122987,121.132211
823,MCPDict,臨海,臨海話,浙江,台州,临海,,,吴语,,台州片,,临海,28.858401,121.144952
824,MCPDict,寧國龍川,寧國龍川話,安徽,宣城,宁国,南极,龙川,吴语,,宣州片,太髙小片,宁国龙川,30.390195,119.057767
825,MCPDict,涇縣茂林,涇縣茂林話,安徽,宣城,泾县,茂林,,吴语,,宣州片,铜泾小片,泾县茂林,30.510542,118.260195
826,MCPDict,石埭安凌,石埭安凌(祁門民話),安徽,黄山,祁门,安凌,,徽语,,旌占片,,石埭安凌,30.048068,117.631944
827,MCPDict,貴池占大,貴池占大話,安徽,池州,石台,占大,建国,徽语,,旌占片,,贵池占大,30.114951,117.421076
828,MCPDict,績溪荆州,績溪荆州話,安徽,宣城,绩溪,荆州,上胡家,徽语,,绩歙片,,绩溪荆州,30.197045,118.875031
829,MCPDict,歙縣大阜,歙縣大阜話,安徽,黄山,歙县,北岸,大阜,徽语,,绩歙片,,歙县大阜,29.906048,118.573192
830,MCPDict,歙縣寺坪,歙縣寺坪話,安徽,黄山,徽州,富溪,寺坪,徽语,,休黟片,,歙县寺坪,30.031683,118.228834
831,MCPDict,建德,建德梅城白話,浙江,杭州,建德,梅城,,徽语,,严州片,,建德,29.540885,119.504176
832,MCPDict,淳安,淳安淳城說話,浙江,杭州,淳安,淳城(龙山岛西南侧千岛湖水库内),,徽语,,严州片,,淳安,29.603013,118.97692
833,MCPDict,遂安,遂安獅城白話,浙江,杭州,淳安,狮城(茅头尖岛西北侧千岛湖水库内),,徽语,,严州片,,遂安,29.477134,118.749038
834,MCPDict,遂安汾口,遂安汾口白話,浙江,杭州,淳安,汾口,,徽语,,严州片,,遂安汾口,29.433889,118.564778
835,MCPDict,蘭谿船上話,蘭谿船上話,浙江,金华,兰谿,*散居,,徽语,,严州片,,兰谿船上话,29.210274,119.455392
836,MCPDict,屯溪船上話,屯溪船上話,安徽,黄山,屯溪,*散居,,徽语,,严州片,,屯溪船上话,29.69869,118.309869
837,MCPDict,富陽東梓關,富陽東梓關說話,浙江,杭州,富阳,场口,东梓关,吴语,,太湖片,临绍小片,富阳东梓关,29.886811,119.823347
838,MCPDict,新登下港,新登下港話,浙江,杭州,富阳,渌渚,港东,吴语,,太湖片,临绍小片,新登下港,29.882542,119.774053
839,MCPDict,新登城陽,新登城陽話,浙江,杭州,富阳,新登,城阳,吴语,,太湖片,临绍小片,新登城阳,30.021235,119.707387
840,MCPDict,壽昌,壽昌說話,浙江,杭州,建德,寿昌,,徽语,,严州片,,寿昌,29.358762,119.221815
841,MCPDict,武義,武義話,浙江,金华,武义,,,吴语,,金衢片,,武义,28.892623,119.816513
842,MCPDict,龍游,龍游舌話,浙江,衢州,龙游,,,吴语,,金衢片,,龙游,29.039034,119.181866
843,MCPDict,宣平,宣平話,浙江,金华,武义,柳城,,吴语,,上丽片,丽水小片,宣平,28.626206,119.605736
844,MCPDict,雲和,雲和話,浙江,丽水,云和,,,吴语,,上丽片,丽水小片,云和,28.103191,119.574086
845,MCPDict,泰順羅陽,泰順羅陽話,浙江,温州,泰顺,罗阳,,吴语,,上丽片,丽水小片,泰顺罗阳,27.556266,119.712596
846,MCPDict,文成南田,文成南田話,浙江,温州,文成,南田,,吴语,,上丽片,丽水小片,文成南田,27.920923,119.956854
847,MCPDict,縉雲,縉雲話,浙江,丽水,缙云,,,吴语,,金衢片,,缙云,28.659282,120.091582
848,MCPDict,遂昌,遂昌話,浙江,丽水,遂昌,,,吴语,,上丽片,丽水小片,遂昌,28.592132,119.276021
849,MCPDict,松陽,松陽話,浙江,丽水,松阳,,,吴语,,上丽片,丽水小片,松阳,28.450375,119.486483
850,MCPDict,開化,開化腔,浙江,衢州,开化,,,吴语,,上丽片,上山小片,开化,29.139655,118.419734
851,MCPDict,玉山,玉山腔,江西,上饶,玉山,,,吴语,,上丽片,上山小片,玉山,28.683952,118.240286
852,MCPDict,樂淸,樂淸話,浙江,温州,乐淸,,,吴语,,瓯江片,,乐淸,28.112892,120.983385
853,MCPDict,永嘉,永嘉話,浙江,温州,永嘉,,,吴语,,瓯江片,,永嘉,28.153361,120.691716
854,MCPDict,溫州,溫州話,浙江,温州,,,,吴语,,瓯江片,,温州,28.014892,120.655056
855,MCPDict,瑞安,瑞安話,浙江,温州,瑞安,,,吴语,,瓯江片,,瑞安,27.780904,120.651265
856,MCPDict,瑞安陶山,瑞安陶山話,浙江,温州,瑞安,陶山,,吴语,,瓯江片,,瑞安陶山,27.842914,120.496132
857,MCPDict,瑞安湖嶺,瑞安湖嶺話,浙江,温州,瑞安,湖岭,,吴语,,瓯江片,,瑞安湖岭,27.901944,120.391676
858,MCPDict,平陽,平陽話,浙江,温州,平阳,,,吴语,,瓯江片,,平阳,27.671906,120.563203
859,MCPDict,龍港,龍港話,浙江,温州,龙港,,,吴语,,瓯江片,,龙港,27.578103,120.549705
860,MCPDict,文成,文成話,浙江,温州,文成,,,吴语,,瓯江片,,文成,27.786783,120.090632
861,MCPDict,蒼南蒲門,蒼南蒲門甌語方言島,浙江,温州,苍南,马站,蒲门,吴语,,瓯江片,,苍南蒲门,27.234161,120.446521
862,MCPDict,泰順莒江,泰順莒江話,浙江,温州,泰顺,百丈,莒江上村,吴语,,上丽片,丽水小片,泰顺莒江,27.634592,119.916712
863,MCPDict,屯溪,屯溪話,安徽,黄山,屯溪,,,徽语,,休黟片,,屯溪,29.714192,118.310492
864,MCPDict,休寧,休寧話,安徽,黄山,休宁,,,徽语,,休黟片,,休宁,29.789842,118.201644
865,MCPDict,休寧五城,休寧五城話,安徽,黄山,休宁,五城,五城,徽语,,休黟片,,休宁五城,29.605386,118.189991
866,MCPDict,黟縣宏村,黟縣宏村話,安徽,黄山,黟县,宏村,,徽语,,休黟片,,黟县宏村,30.008458,117.996124
867,MCPDict,祁門大坦,祁門大坦話,安徽,黄山,祁门,大坦,,徽语,,祁婺片,,祁门大坦,29.948804,117.764021
868,MCPDict,祁門箬坑,祁門箬坑話,安徽,黄山,祁门,箬坑,,徽语,,祁婺片,,祁门箬坑,29.858313,117.575002
869,MCPDict,婺源秋口,婺源秋口話,江西,上饶,婺源,秋口,,徽语,,祁婺片,,婺源秋口,29.349158,117.911148
870,MCPDict,德興,德興話,江西,上饶,德兴,,,徽语,,祁婺片,,德兴,28.938851,117.600453
871,MCPDict,浮梁,浮梁舊城話,江西,景德镇,浮梁,浮梁,旧城,徽语,,祁婺片,,浮梁,29.374012,117.250999
872,MCPDict,貴溪,貴溪話,江西,鹰潭,贵溪,雄石,,赣语,,鹰弋片,,贵溪,28.304332,117.250249
873,MCPDict,鉛山,鉛山話,江西,上饶,铅山,河口,,赣语,,鹰弋片,,铅山,28.317434,117.717574
874,MCPDict,上饒,上饒街腔,江西,上饶,,,,吴语,,上丽片,上山小片,上饶,28.459612,117.951763
875,MCPDict,通山,通山話,湖北,咸宁,通山,,,赣语,,大通片,,通山,29.613639,114.489397
876,MCPDict,鄂州太和,鄂州太和話,湖北,鄂州,梁子湖,太和,,官话,江淮官话,黄孝片,,鄂州太和,30.099221,114.686974
877,MCPDict,大冶,大冶話,湖北,黄石,大冶,,,赣语,,大通片,,大冶,30.102668,114.982988
878,MCPDict,大冶金牛,大冶金牛話,湖北,黄石,大冶,金牛,,赣语,,大通片,,大冶金牛,30.020145,114.629019
879,MCPDict,陽新,陽新話,湖北,黄石,阳新,,,赣语,,大通片,,阳新,29.847757,115.221426
880,MCPDict,陽新國和,陽新國和話,湖北,黄石,阳新,王英,国和,赣语,,大通片,,阳新国和,29.846951,114.829237
881,MCPDict,江夏湖泗,江夏湖泗話,湖北,武汉,江夏,湖泗,,赣语,,大通片,,江夏湖泗,30.024042,114.472658
882,MCPDict,咸寧,咸寧話,湖北,咸宁,,,,赣语,,大通片,,咸宁,29.876122,114.329094
883,MCPDict,咸寧王畈,咸寧王畈話,湖北,咸宁,咸安,马桥,王畈,赣语,,大通片,,咸宁王畈,29.783753,114.366355
884,MCPDict,瑞昌南義,瑞昌南義話,江西,九江,瑞昌,南义,,赣语,,昌都片,,瑞昌南义,29.44629,115.32713
885,MCPDict,瑞昌肇陳,瑞昌肇陳話,江西,九江,瑞昌,肇陈,,赣语,,昌都片,,瑞昌肇陈,29.57988,115.18927
886,MCPDict,東至龍泉,東至龍泉話,安徽,池州,东至,龙泉,,赣语,,怀岳片,,东至龙泉,29.577311,116.792402
887,MCPDict,樂平,樂平話,江西,景德镇,乐平,洎阳,,赣语,,鹰弋片,,乐平,28.963341,117.128941
888,MCPDict,萬年梓埠,萬年梓埠話,江西,上饶,万年,梓埠,,赣语,,鹰弋片,,万年梓埠,28.854572,116.868002
889,MCPDict,萬年石鎭,萬年石鎭話,江西,上饶,万年,石镇,,赣语,,鹰弋片,,万年石镇,28.853713,116.96798
890,MCPDict,餘干玉亭,餘干玉亭話,江西,上饶,余干,玉亭,,赣语,,鹰弋片,,余干玉亭,28.716375,116.693411
891,MCPDict,湖口武山,湖口武山話,江西,九江,湖口,武山,,赣语,,昌都片,,湖口武山,29.587264,116.344036
892,MCPDict,星子,星子話,江西,九江,庐山,南康,,赣语,,昌都片,,星子,29.454539,116.051426
893,MCPDict,都昌陽峯,都昌陽峯話,江西,九江,都昌,阳峰,,赣语,,昌都片,,都昌阳峰,29.291336,116.384803
894,MCPDict,都昌多寶,都昌多寶話,江西,九江,都昌,多宝,,赣语,,昌都片,,都昌多宝,29.404008,116.139703
895,MCPDict,1935南昌,《南昌音系》1935南昌城內話,江西,南昌,,,,赣语,,昌都片,,1935南昌,28.777256,115.908514
896,MCPDict,南昌,南昌話,江西,南昌,,,,赣语,,昌都片,,南昌,28.687256,115.908514
897,MCPDict,南昌黃渡,南昌縣南新鄕黃渡村樟樹魏家,江西,南昌,南昌县,南新乡,黄渡村,赣语,,昌都片,,南昌黄渡,28.7874,116.011682
898,MCPDict,新建,新建話,江西,南昌,新建,,,赣语,,昌都片,,新建,28.700272,115.819149
899,MCPDict,安義,安義話,江西,南昌,安义,,,赣语,,昌都片,,安义,28.848453,115.572259
900,MCPDict,永修,永修話,江西,九江,永修,涂埠,,赣语,,昌都片,,永修,29.020733,115.842398
901,MCPDict,進賢李渡,進賢李渡話,江西,南昌,进贤,李渡,柴埠,赣语,,鹰弋片,,进贤李渡,28.1794,116.21384
902,MCPDict,進賢民和,進賢民和話,江西,南昌,进贤,民和,,赣语,,鹰弋片,,进贤民和,28.365556,116.256944
903,MCPDict,武寧澧溪,武寧澧溪話,江西,九江,武宁,澧溪,,赣语,,昌都片,,武宁澧溪,29.255264,114.849854
904,MCPDict,武寧泉口,武寧泉口話,江西,九江,武宁,泉口,,赣语,,昌都片,,武宁泉口,29.492402,115.031882
905,MCPDict,奉新宋埠,奉新宋埠話,江西,宜春,奉新,宋埠,,赣语,,宜浏片,,奉新宋埠,28.733392,115.507777
906,MCPDict,奉新蔣坪,奉新蔣坪話,江西,宜春,奉新,干洲,蒋坪,赣语,,宜浏片,,奉新蒋坪,28.752263,115.366031
907,MCPDict,髙安楊墟,髙安楊墟話,江西,宜春,髙安,杨墟,老屋周家,赣语,,宜浏片,,髙安杨墟,28.312913,115.230523
908,MCPDict,豐城,豐城話,江西,宜春,丰城,,,赣语,,宜浏片,,丰城,28.166747,115.777688
909,MCPDict,豐城鐵路,豐城鐵路話,江西,宜春,丰城,铁路,,赣语,,宜浏片,,丰城铁路,27.877022,115.799881
910,MCPDict,樟樹,樟樹話,江西,宜春,樟树,,,赣语,,宜浏片,,樟树,28.063172,115.548391
911,MCPDict,上髙,上髙話,江西,宜春,上髙,敖阳,,赣语,,宜浏片,,上髙,28.240771,114.940781
912,MCPDict,上髙鎭渡,上髙鎭渡話,江西,宜春,上髙,镇渡,,赣语,,宜浏片,,上髙镇渡,28.207756,114.612681
913,MCPDict,新喩,新喩話,江西,新余,,,,赣语,,宜浏片,,新喩,27.825624,114.923539
914,MCPDict,宜春,宜春話,江西,宜春,,,,赣语,,宜浏片,,宜春,27.818323,114.420973
915,MCPDict,萍鄕,萍鄕城關話,江西,萍鄕,,,,赣语,,吉茶片,,萍鄕,27.669259,113.890197
916,MCPDict,分宜鈐山,分宜鈐山話,江西,新余,分宜,钤山,,赣语,,吉茶片,,分宜钤山,27.698642,114.695764
917,MCPDict,東鄕,東鄕話,江西,抚州,东鄕,,,赣语,,抚广片,,东鄕,28.251431,116.609541
918,MCPDict,資溪,資溪話,江西,抚州,资溪,,,赣语,,抚广片,,资溪,27.711845,117.075196
919,MCPDict,臨川,臨川話（老派）,江西,抚州,临川,,,赣语,,抚广片,,临川,28.001873,116.363405
920,MCPDict,臨川上頓渡,臨川上頓渡話,江西,抚州,临川,上顿渡,,赣语,,抚广片,,临川上顿渡,27.939222,116.298144
921,MCPDict,宜黃,宜黃話,江西,抚州,宜黄,凤冈,,赣语,,抚广片,,宜黄,27.555006,116.236275
922,MCPDict,崇仁,崇仁話,江西,抚州,崇仁,,,赣语,,抚广片,,崇仁,27.763939,116.072624
923,MCPDict,黎川,黎川話,江西,抚州,黎川,日峰,,赣语,,抚广片,,黎川,27.284625,116.902389
924,MCPDict,南豐,南豐話,江西,抚州,南丰,琴城,,赣语,,抚广片,,南丰,27.225762,116.533132
925,MCPDict,安福,安福話,江西,吉安,安福,,,赣语,,吉茶片,,安福,27.394201,114.624178
926,MCPDict,峽江巴邱,峽江巴邱話,江西,吉安,峡江,巴邱,,赣语,,吉茶片,,峡江巴邱,27.578878,115.178821
927,MCPDict,永豐,永豐話,江西,吉安,永丰,恩江,,赣语,,吉茶片,,永丰,27.327936,115.435905
928,MCPDict,吉水金灘,吉水金灘話,江西,吉安,吉水,金滩,,赣语,,吉茶片,,吉水金滩,27.251947,115.109938
929,MCPDict,平江,平江事(漢昌[城關]),湖南,岳阳,平江,汉昌,,赣语,,大通片,,平江,28.716093,113.589307
930,MCPDict,平江岑川,平江岑川話,湖南,岳阳,平江,岑川,,湘语,,长益片,长株潭小片,平江岑川,28.928011,113.429234
931,MCPDict,汨羅大荊,汨羅大荊話,湖南,岳阳,汨罗,大荆,,湘语,,长益片,长株潭小片,汨罗大荆,28.957968,113.271647
932,MCPDict,汨羅長樂,汨羅長樂話,湖南,岳阳,汨罗,长乐,,湘语,,长益片,长株潭小片,汨罗长乐,28.848039,113.283389
933,MCPDict,瀏陽,瀏陽城關話,湖南,长沙,浏阳,,,赣语,,宜浏片,,浏阳,28.166416,113.637577
934,MCPDict,瀏陽金剛,瀏陽金剛話,湖南,长沙,浏阳,金刚,,赣语,,宜浏片,,浏阳金刚,27.915672,113.699158
935,MCPDict,醴陵板杉,醴陵板杉話,湖南,株洲,醴陵,板杉,,赣语,,宜浏片,,醴陵板杉,27.710472,113.448133
936,MCPDict,醴陵石亭,醴陵石亭話,湖南,株洲,醴陵,石亭,,赣语,,宜浏片,,醴陵石亭,27.625149,113.252445
937,MCPDict,1935醴陵,1935醴陵話,湖南,株洲,醴陵,,,赣语,,宜浏片,,1935醴陵,27.652063,113.503484
938,MCPDict,巴陵,老岳陽話[巴陵話],湖南,岳阳,岳阳楼区,城陵矶,,赣语,,大通片,,巴陵,29.444068,113.151904
939,MCPDict,岳陽,新岳陽話,湖南,岳阳,岳阳楼区,南湖,,赣语,,大通片,,岳阳,29.36509,113.11876
940,MCPDict,岳陽君山,岳陽君山話,湖南,岳阳,君山区,,,官话,西南官话,湖广片,湘北小片,岳阳君山,29.464286,113.000966
941,MCPDict,監利,監利城關話,湖北,荆州,监利,,,赣语,,大通片,,监利,29.8115,112.897465
942,MCPDict,華容,華容城關話,湖南,岳阳,华容,,,官话,西南官话,湖广片,湘北小片,华容,29.536286,112.547462
943,MCPDict,蒲圻,蒲圻[赤壁]話,湖北,咸宁,赤壁,,,赣语,,大通片,,蒲圻,29.735183,113.905291
944,MCPDict,蒲圻羊樓洞,蒲圻[赤壁]羊樓洞話,湖北,咸宁,赤壁,赵李桥,羊楼洞,赣语,,大通片,,蒲圻羊楼洞,29.585183,113.775291
945,MCPDict,蒲圻神山,蒲圻[赤壁]神山話,湖北,咸宁,赤壁,神山,,赣语,,大通片,,蒲圻神山,29.897979,114.036742
946,MCPDict,崇陽縣志,崇陽縣志音系,湖北,咸宁,崇阳,,,赣语,,大通片,,崇阳县志,29.559322,113.852308
947,MCPDict,崇陽,崇陽事（城關片，天城白霓靑山石城大橋嗰事）,湖北,咸宁,崇阳,,,赣语,,大通片,,崇阳,29.559322,114.052308
948,MCPDict,洵陽麻坪崇陽話,洵陽麻坪崇陽話方言島,陕西,安康,旬阳,麻坪,丝铺,赣语,,大通片,,洵阳麻坪崇阳话,33.028569,109.04234
949,MCPDict,通城塘湖,通城塘湖事（東鄕）,湖北,咸宁,通城,塘湖,,赣语,,大通片,,通城塘湖,29.21452,113.98092
950,MCPDict,通城,通城事（城關）,湖北,咸宁,通城,,,赣语,,大通片,,通城,29.254892,113.821839
951,MCPDict,臨湘詹橋,臨湘詹橋話,湖南,岳阳,临湘,詹桥,,赣语,,大通片,,临湘詹桥,29.304084,113.601628
952,MCPDict,臨湘白羊田,臨湘白羊田話,湖南,岳阳,临湘,白羊田,,赣语,,大通片,,临湘白羊田,29.225897,113.413489
953,MCPDict,臨湘,臨湘城關話,湖南,岳阳,临湘,,,赣语,,大通片,,临湘,29.474627,113.459004
954,MCPDict,岳陽路口,岳陽雲溪路口話,湖南,岳阳,云溪,路口,,赣语,,大通片,,岳阳路口,29.518671,113.372712
955,MCPDict,嘉魚,嘉魚話,湖北,咸宁,嘉鱼,,,赣语,,大通片,,嘉鱼,29.974351,113.947296
956,MCPDict,岳陽西塘,岳陽西塘話,湖南,岳阳,岳阳楼区,西塘,,湘语,,长益片,岳阳小片,岳阳西塘,29.355472,113.27096
957,MCPDict,岳陽榮家灣,岳陽榮家灣(城關)話,湖南,岳阳,岳阳县,,,湘语,,长益片,岳阳小片,岳阳荣家湾,29.137937,113.117251
958,MCPDict,岳陽筻口,岳陽筻口話,湖南,岳阳,岳阳县,筻口,,湘语,,长益片,岳阳小片,岳阳筻口,29.189935,113.305772
959,MCPDict,1935長沙,湖南方言調査報吿1935長沙話,湖南,长沙,,,,湘语,,长益片,长株潭小片,1935长沙,28.182768,113.002739
960,MCPDict,長沙,老派長沙話,湖南,长沙,,,,湘语,,长益片,长株潭小片,长沙,28.198012,112.980373
961,MCPDict,新長沙,新派長沙話,湖南,长沙,,,,湘语,,长益片,长株潭小片,新长沙,28.002768,113.002739
962,MCPDict,長沙黎圫,長沙黎圫話,湖南,长沙,雨花区,黎圫,,湘语,,长益片,长株潭小片,长沙黎圫,28.159035,113.071884
963,MCPDict,長沙星沙,長沙星沙(城關)話,湖南,长沙,长沙县,星沙,,湘语,,长益片,长株潭小片,长沙星沙,28.258288,113.120401
964,MCPDict,長沙黃花,長沙黃花話,湖南,长沙,长沙县,黄花,,湘语,,长益片,长株潭小片,长沙黄花,28.240893,113.195454
965,MCPDict,望城,望城髙塘嶺(城關)話,湖南,长沙,望城,髙塘岭,,湘语,,长益片,长株潭小片,望城,28.380435,112.820282
966,MCPDict,瀏陽永安,瀏陽永安話,湖南,长沙,浏阳,永安,,湘语,,长益片,长株潭小片,浏阳永安,28.214699,113.294962
967,MCPDict,安鄕安康,安鄕安康話,湖南,常德,安鄕,安康,,湘语,,长益片,长株潭小片,安鄕安康,29.366242,112.139515
968,MCPDict,南縣,南縣荷花嘴話,湖南,益阳,南县,荷花嘴,,湘语,,长益片,长株潭小片,南县,29.370093,112.394494
969,MCPDict,桃源薛家沖,桃源西安薛家沖話,湖南,常德,桃源,西安,薛家冲村,官话,西南官话,湖广片,湘北小片,桃源薛家冲,28.432799,110.910393
970,MCPDict,石首東升,石首東升湖南話方言島,湖北,荆州,石首,东升,,湘语,,长益片,长株潭小片,石首东升,29.719978,112.536557
971,MCPDict,漢陰田禾,漢陰田禾長沙佬話方言島,陕西,安康,汉阴,田禾,,湘语,,长益片,长株潭小片,汉阴田禾,32.872494,108.668192
972,MCPDict,南陵湖南街,南陵湖南街湖南話方言島,安徽,芜湖,南陵,三里,澄桥,湘语,,长益片,长株潭小片,南陵湖南街,30.796707,118.287349
973,MCPDict,瀏陽鎭頭,瀏陽鎭頭話,湖南,长沙,浏阳,镇头,,湘语,,长益片,长株潭小片,浏阳镇头,28.01134,113.336239
974,MCPDict,瀏陽田坪,瀏陽田坪話,湖南,长沙,浏阳,镇头,田坪,湘语,,长益片,长株潭小片,浏阳田坪,27.997315,113.323528
975,MCPDict,寧鄕玉潭,寧鄕城關,湖南,长沙,宁乡,玉潭,,湘语,,长益片,长株潭小片,宁鄕玉潭,28.25637,112.52694
976,MCPDict,株洲,株洲市區本地話,湖南,株洲,,,,湘语,,长益片,长株潭小片,株洲,27.832929,113.143772
977,MCPDict,湘潭,湘潭話,湖南,湘潭,,,,湘语,,长益片,长株潭小片,湘潭,27.837431,112.951909
978,MCPDict,湘潭易俗河,湘潭易俗河話,湖南,湘潭,湘潭县,,,湘语,,长益片,长株潭小片,湘潭易俗河,27.778729,112.962392
979,MCPDict,湘潭中路舖,湘潭中路舖話,湖南,湘潭,湘潭县,中路舖,,湘语,,长益片,长株潭小片,湘潭中路舖,27.556032,112.924413
980,MCPDict,湘潭白石,湘潭白石話,湖南,湘潭,湘潭县,白石,,湘语,,长益片,长株潭小片,湘潭白石,27.468559,112.895932
981,MCPDict,湘潭花石,湘潭花石話,湖南,湘潭,湘潭县,花石,,湘语,,长益片,长株潭小片,湘潭花石,27.513967,112.721632
982,MCPDict,長沙雙江,長沙雙江話,湖南,长沙,长沙县,金井,双江,湘语,,长益片,长株潭小片,长沙双江,28.553967,113.458395
983,MCPDict,長沙開慧,長沙開慧話,湖南,长沙,长沙县,开慧,,湘语,,长益片,长株潭小片,长沙开慧,28.592312,113.220951
984,MCPDict,汨羅,汨羅城關話,湖南,岳阳,汨罗,,,湘语,,长益片,长株潭小片,汨罗,28.810429,113.082122
985,MCPDict,汨羅新市,汨羅新市話,湖南,岳阳,汨罗,新市,沙溪,湘语,,长益片,长株潭小片,汨罗新市,28.788588,113.172267
986,MCPDict,汨羅沙溪,汨羅沙溪話,湖南,岳阳,汨罗,神鼎山,,湘语,,长益片,长株潭小片,汨罗沙溪,28.667074,113.181427
987,MCPDict,湘陰東塘,湘陰東塘話,湖南,岳阳,湘阴,东塘,,湘语,,长益片,长株潭小片,湘阴东塘,28.779654,112.966112
988,MCPDict,湘陰,湘陰文星(城關)話,湖南,岳阳,湘阴,,,湘语,,长益片,长株潭小片,湘阴,28.692642,112.903781
989,MCPDict,湘陰界頭鋪,湘陰界頭鋪話,湖南,岳阳,湘阴,界头铺,,湘语,,长益片,长株潭小片,湘阴界头铺,28.541071,112.943011
990,MCPDict,望城銅官,望城銅官話,湖南,长沙,望城,铜官,,湘语,,长益片,长株潭小片,望城铜官,28.481185,112.816755
991,MCPDict,沅江南大膳,沅江南大膳本地話（湘陰話）,湖南,益阳,沅江,南大膳,,湘语,,长益片,益沅小片,沅江南大膳,29.018052,112.720087
992,MCPDict,益陽,益陽話,湖南,益阳,资阳区,,,湘语,,长益片,益沅小片,益阳,28.5562,112.34976
993,MCPDict,益陽泥江口,益陽泥江口話,湖南,益阳,赫山区,泥江口,,湘语,,长益片,益沅小片,益阳泥江口,28.400378,112.336493
994,MCPDict,沅江,沅江瓊湖（城關）話,湖南,益阳,沅江,琼湖,,湘语,,长益片,益沅小片,沅江,28.850233,112.365703
995,MCPDict,沅江四季紅,沅江四季紅話,湖南,益阳,沅江,四季红,,湘语,,长益片,益沅小片,沅江四季红,29.122336,112.574296
996,MCPDict,沅江草尾,沅江草尾話,湖南,益阳,沅江,草尾,,湘语,,长益片,益沅小片,沅江草尾,29.044815,112.381353
997,MCPDict,沅江新灣,沅江新灣赤山話,湖南,益阳,沅江,新湾,,官话,西南官话,湖广片,湘北小片,沅江新湾,28.935752,112.322394
998,MCPDict,桃江髙橋,桃江髙橋話,湖南,益阳,桃江,髙桥,,湘语,,长益片,益沅小片,桃江髙桥,28.415322,112.069753
999,MCPDict,桃江三堂街,桃江三堂街話,湖南,益阳,桃江,三堂街,乌旗山,湘语,,长益片,益沅小片,桃江三堂街,28.610601,111.920001
1000,MCPDict,溧水雙泥塘,溧水雙泥塘湖南話方言島,江苏,南京,溧水,永阳,东山,湘语,,长益片,益沅小片,溧水双泥塘,31.672621,119.104882
1001,MCPDict,韶山,韶山韶山沖話,湖南,湘潭,韶山,,,湘语,,娄邵片,湘双小片,韶山,27.918342,112.521649
1002,MCPDict,寧鄕大成橋,寧鄕大成橋話,湖南,长沙,宁鄕,大成桥,,湘语,,娄邵片,涟梅小片,宁鄕大成桥,28.197111,112.369173
1003,MCPDict,寧鄕花明樓,寧鄕花明樓話,湖南,长沙,宁鄕,花明楼,,湘语,,长益片,长株潭小片,宁鄕花明楼,28.046706,112.643027
1004,MCPDict,寧鄕黃材,寧鄕黃材話,湖南,长沙,宁鄕,黄材,,湘语,,娄邵片,涟梅小片,宁鄕黄材,28.148838,112.120741
1005,MCPDict,安化界牌,安化長塘界牌話,湖南,益阳,安化,长塘,界牌,湘语,,娄邵片,涟梅小片,安化界牌,28.396554,111.806658
1006,MCPDict,安化梅城,安化梅城話,湖南,益阳,安化,梅城（旧城关）,,湘语,,娄邵片,涟梅小片,安化梅城,28.144004,111.656204
1007,MCPDict,安化髙明,安化髙明話,湖南,益阳,安化,髙明,,湘语,,娄邵片,涟梅小片,安化髙明,28.066923,111.863701
1008,MCPDict,安化東坪,安化東坪(城關)話,湖南,益阳,安化,东坪（今城关）,,湘语,,娄邵片,湘双小片,安化东坪,28.384746,111.231382
1009,MCPDict,韶山大坪,韶山大坪話,湖南,湘潭,韶山,大坪,,湘语,,娄邵片,湘双小片,韶山大坪,27.903124,112.431956
1010,MCPDict,湘鄕,湘鄕城關話,湖南,湘潭,湘鄕,,,湘语,,娄邵片,湘双小片,湘鄕,27.751771,112.525593
1011,MCPDict,雙峯,雙峯永豐(城關)話,湖南,娄底,双峰,,,湘语,,娄邵片,湘双小片,双峰,27.458382,112.170347
1012,MCPDict,雙峯三塘鋪,雙峯三塘鋪話,湖南,娄底,双峰,三塘铺,,湘语,,娄邵片,湘双小片,双峰三塘铺,27.397169,112.00388
1013,MCPDict,雙峯甘棠,雙峯甘棠話,湖南,娄底,双峰,甘棠,,湘语,,娄邵片,湘双小片,双峰甘棠,27.435212,111.981874
1014,MCPDict,達縣安仁,達縣安仁長沙話方言島,四川,达州,达川区,安仁,,湘语,,娄邵片,湘双小片,达县安仁,31.031919,107.772941
1015,MCPDict,漵浦低莊,漵浦低莊話,湖南,怀化,溆浦,低庄,,湘语,,辰溆片,,溆浦低庄,28.079351,110.740058
1016,MCPDict,漵浦崗東,漵浦崗東話,湖南,怀化,溆浦,岗东,,湘语,,辰溆片,,溆浦岗东,27.925292,110.842342
1017,MCPDict,新化白溪,新化白溪話,湖南,娄底,新化,白溪,,湘语,,娄邵片,新化小片,新化白溪,27.748412,111.311059
1018,MCPDict,冷水江錫礦山,冷水江錫礦山話,湖南,娄底,冷水江,锡矿山,,湘语,,娄邵片,新化小片,冷水江锡矿山,27.742803,111.472886
1019,MCPDict,冷水江,冷水江市區話,湖南,娄底,冷水江,,,湘语,,娄邵片,新化小片,冷水江,27.679776,111.444123
1020,MCPDict,新邵坪上,新邵坪上話,湖南,邵阳,新邵,坪上,,湘语,,娄邵片,武邵小片,新邵坪上,27.543096,111.533106
1021,MCPDict,龍勝新化話,龍勝新化話方言島,广西,桂林,龙胜,龙胜,双洞村,湘语,,娄邵片,新化小片,龙胜新化话,25.762737,110.043715
1022,MCPDict,臨桂陶善,臨桂宛田陶善新化話方言島,广西,桂林,临桂,宛田,陶善,湘语,,娄邵片,新化小片,临桂陶善,25.578196,109.993864
1023,MCPDict,江華岑天河,江華岑天河新化話方言島,湖南,永州,江华,岑天河,,湘语,,娄邵片,新化小片,江华岑天河,25.168792,111.634505
1024,MCPDict,鳳凰,鳳凰沱江(城關)話,湖南,湘西,凤凰,,,官话,西南官话,湖广片,湘西小片,凤凰,27.955892,109.606387
1025,MCPDict,麻陽,麻陽髙村(城關)話,湖南,怀化,麻阳,,,官话,西南官话,湖广片,湘西小片,麻阳,27.875507,109.808003
1026,MCPDict,懷化,懷化話,湖南,怀化,,,,官话,西南官话,湖广片,怀玉小片,怀化,27.553641,110.000178
1027,MCPDict,中方,中方話,湖南,怀化,中方,,,官话,西南官话,湖广片,怀玉小片,中方,27.44839,109.9529
1028,MCPDict,黔陽安江,黔陽安江話,湖南,怀化,洪江市,安江（旧城关）,,官话,西南官话,湖广片,怀玉小片,黔阳安江,27.320376,110.155648
1029,MCPDict,芷江,芷江話,湖南,怀化,芷江,,,官话,西南官话,湖广片,怀玉小片,芷江,27.443499,109.684629
1030,MCPDict,漵浦龍潭,漵浦龍潭話,湖南,怀化,溆浦,龙潭,,湘语,,辰溆片,,溆浦龙潭,27.418749,110.551888
1031,MCPDict,會同,會同林城(城關)話,湖南,怀化,会同,,,湘语,,娄邵片,绥会小片,会同,26.890805,109.742444
1032,MCPDict,會同若水,會同若水瓦窯話,湖南,怀化,会同,若水,瓦窑,湘语,,娄邵片,绥会小片,会同若水,27.001151,109.97186
1033,MCPDict,會同團河,會同團河話,湖南,怀化,会同,团河,,湘语,,娄邵片,绥会小片,会同团河,26.874232,109.952131
1034,MCPDict,綏寧河口,綏寧河口話,湖南,邵阳,绥宁,河口,,湘语,,娄邵片,绥会小片,绥宁河口,26.748876,110.079447
1035,MCPDict,會同靑朗,會同靑朗話,湖南,怀化,会同,青朗,木舟村,湘语,,娄邵片,绥会小片,会同靑朗,26.909953,109.628856
1036,MCPDict,會同髙椅,會同髙椅話,湖南,怀化,会同,高椅,高椅村,湘语,,娄邵片,绥会小片,会同髙椅,26.957867,110.024432
1037,MCPDict,靖州大堡子,靖州大堡子酸湯話,湖南,怀化,靖州,大堡子,,湘语,,娄邵片,方言岛,靖州大堡子,26.696559,109.453308
1038,MCPDict,天柱江東,天柱江東酸湯話,贵州,黔东南,天柱,江东,,湘语,,娄邵片,方言岛,天柱江东,26.980998,109.473555
1039,MCPDict,樂至南沖寺,樂至南沖寺靖州腔方言島,四川,资阳,乐至,新乐,六村八队（南冲寺）,湘语,,娄邵片,方言岛,乐至南冲寺,30.332702,105.00396
1040,MCPDict,晴隆長流,晴隆長流喇叭苗土話,贵州,黔西南,晴隆,长流,,湘语,,娄邵片,方言岛,晴隆长流,26.139595,105.16396
1041,MCPDict,沅陵死客子話,沅陵死客子話,湖南,怀化,沅陵,麻溪铺,仰溪铺,湘语,,辰溆片,,沅陵死客子话,28.340479,110.386002
1042,MCPDict,漵浦,漵浦盧峯(城關)話,湖南,怀化,溆浦,卢峰,,湘语,,辰溆片,,溆浦,27.913696,110.600933
1043,MCPDict,辰谿,辰谿辰陽(城關)話,湖南,怀化,辰谿,,,湘语,,辰溆片,,辰谿,28.012354,110.189642
1044,MCPDict,瀘溪武溪,瀘溪武溪(城關)話,湖南,湘西,泸溪,,,湘语,,辰溆片,,泸溪武溪,28.268229,110.164664
1045,MCPDict,瀘溪興隆場,瀘溪興隆場話,湖南,湘西,泸溪,兴隆场,,湘语,,辰溆片,,泸溪兴隆场,28.063441,109.869635
1046,MCPDict,古丈死客子話,古丈死客子話,湖南,湘西,古丈,,,湘语,,辰溆片,,古丈死客子话,28.61944,109.94812
1047,MCPDict,吉安雲樓,吉安雲樓話,江西,吉安,靑原,富田,云楼,赣语,,吉茶片,,吉安云楼,26.824522,115.255428
1048,MCPDict,遂川,遂川話,江西,吉安,遂川,,,赣语,,吉茶片,,遂川,26.321589,114.526991
1049,MCPDict,遂川禾源,遂川禾源話,江西,吉安,遂川,禾源,,赣语,,吉茶片,,遂川禾源,26.187314,114.439279
1050,MCPDict,寧岡礱市,寧岡礱市話,江西,吉安,井冈山,龙市,,赣语,,吉茶片,,宁冈砻市,26.708842,113.962692
1051,MCPDict,攸縣皇圖嶺,攸縣皇圖嶺話,湖南,株洲,攸县,皇图岭,,赣语,,吉茶片,,攸县皇图岭,27.357211,113.497208
1052,MCPDict,攸縣新市,攸縣新市話,湖南,株洲,攸县,新市,,赣语,,吉茶片,,攸县新市,27.184237,113.396641
1053,MCPDict,攸縣,攸縣城關話,湖南,株洲,攸县,,,赣语,,吉茶片,,攸县,27.021421,113.403727
1054,MCPDict,衡東草市,衡東草市話,湖南,衡阳,衡东,草市,,湘语,,衡州片,衡山小片,衡东草市,26.906271,113.187854
1055,MCPDict,茶陵,茶陵話,湖南,株洲,茶陵,,,赣语,,吉茶片,,茶陵,26.784105,113.54605
1056,MCPDict,茶陵下東,茶陵下東話,湖南,株洲,茶陵,下东,,赣语,,吉茶片,,茶陵下东,26.776477,113.541935
1057,MCPDict,酃縣,酃縣[炎陵]霞陽(城關)話,湖南,株洲,炎陵,,,赣语,,吉茶片,,酃县,26.496579,113.778846
1058,MCPDict,桂東,桂東城關話,湖南,郴州,桂东,,,客家话,,铜桂片,,桂东,26.081447,113.939764
1059,MCPDict,宜章栗源,宜章栗源俄俚話,湖南,郴州,宜章,栗源,老王冲,土话,,湘南片,,宜章栗源,25.222076,112.955594
1060,MCPDict,宜章東風,宜章東風俄俚話,湖南,郴州,宜章,东风,贺家村,土话,,湘南片,,宜章东风,25.077988,112.754547
1061,MCPDict,邵陽,邵陽話,湖南,邵阳,,,,湘语,,娄邵片,武邵小片,邵阳,27.242656,111.461071
1062,MCPDict,邵東,邵東兩市(城關)話,湖南,邵阳,邵东,,,湘语,,娄邵片,武邵小片,邵东,27.264309,111.73354
1063,MCPDict,邵東水東江,邵東水東江話,湖南,邵阳,邵东,水东江,,湘语,,娄邵片,武邵小片,邵东水东江,27.145731,112.042531
1064,MCPDict,邵東斫曹,邵東斫曹話,湖南,邵阳,邵东,斫曹,,湘语,,娄邵片,武邵小片,邵东斫曹,27.432847,111.876574
1065,MCPDict,新邵,新邵釀溪(城關)話,湖南,邵阳,新邵,,,湘语,,娄邵片,武邵小片,新邵,27.327132,111.464449
1066,MCPDict,城步,城步儒林(城關)話,湖南,邵阳,城步,,,湘语,,娄邵片,武邵小片,城步,26.394125,110.317842
1067,MCPDict,武岡,武岡城區話,湖南,邵阳,武冈,,,湘语,,娄邵片,武邵小片,武冈,26.739609,110.642143
1068,MCPDict,洞口楊林,洞口楊林話,湖南,邵阳,洞口,杨林,,湘语,,娄邵片,武邵小片,洞口杨林,26.972486,110.908137
1069,MCPDict,新寧,新寧金石(城關)話,湖南,邵阳,新宁,金石(城关),曾家桥,湘语,,娄邵片,武邵小片,新宁,26.440762,110.861482
1070,MCPDict,資源瓜里官話,資源瓜里官話,广西,桂林,资源,瓜里,,官话,西南官话,桂柳片,桂北小片,资源瓜里官话,26.188648,110.603523
1071,MCPDict,金堂竹篙,金堂竹篙老湖廣話,四川,成都,金堂,竹篙,,湘语,,娄邵片,方言岛,金堂竹篙,30.631633,104.741382
1072,MCPDict,南溪大坪,南溪大坪老湖廣話,四川,宜宾,南溪,大坪,,湘语,,娄邵片,方言岛,南溪大坪,29.037514,104.903373
1073,MCPDict,中江積金,中江積金廣福兩鎭老湖廣話,四川,德阳,中江,积金、广福,,湘语,,娄邵片,方言岛,中江积金,31.033051,104.678749
1074,MCPDict,隆回,隆回桃洪(城關)話,湖南,邵阳,隆回,桃洪(今城关),,湘语,,娄邵片,武邵小片,隆回,27.124576,111.035771
1075,MCPDict,隆回六都寨,隆回六都寨話,湖南,邵阳,隆回,六都寨(旧城关),,赣语,,洞绥片,,隆回六都寨,27.366207,110.946142
1076,MCPDict,洞口,洞口城關話,湖南,邵阳,洞口,洞口镇,,赣语,,洞绥片,,洞口,27.065975,110.582579
1077,MCPDict,綏寧梅坪,綏寧梅坪話,湖南,邵阳,绥宁,梅坪,,赣语,,洞绥片,,绥宁梅坪,27.006498,110.404288
1078,MCPDict,綏寧武陽,綏寧武陽話,湖南,邵阳,绥宁,武阳,,赣语,,洞绥片,,绥宁武阳,26.746312,110.334388
1079,MCPDict,冷水江鐸山,冷水江鐸山話,湖南,娄底,冷水江,铎山,,湘语,,娄邵片,涟梅小片,冷水江铎山,27.670225,111.590464
1080,MCPDict,漣源橋頭河,漣源橋頭河話,湖南,娄底,涟源,桥头河,,湘语,,娄邵片,涟梅小片,涟源桥头河,27.821583,111.857091
1081,MCPDict,婁底石井,婁底石井話,湖南,娄底,娄星,石井,蛟龙,湘语,,娄邵片,涟梅小片,娄底石井,27.794242,111.958975
1082,MCPDict,婁底,婁底話,湖南,娄底,,,,湘语,,娄邵片,涟梅小片,娄底,27.699521,111.989065
1083,MCPDict,婁底萬寶,婁底萬寶話,湖南,娄底,娄星,万宝,春溪,湘语,,娄邵片,涟梅小片,娄底万宝,27.645765,112.026902
1084,MCPDict,湘鄕棋梓,湘鄕棋梓話,湖南,湘潭,湘鄕,棋梓,,湘语,,娄邵片,湘双小片,湘鄕棋梓,27.729898,112.233822
1085,MCPDict,衡山馬跡,衡山馬跡話,湖南,衡阳,衡山,马迹,,湘语,,娄邵片,湘双小片,衡山马迹,27.266915,112.57019
1086,MCPDict,衡山,衡山長江話,湖南,衡阳,衡山,长江,,湘语,,衡州片,衡山小片,衡山,27.23373,112.862988
1087,MCPDict,衡東,衡東話,湖南,衡东,,,,湘语,,衡州片,衡山小片,衡东,27.08,112.95
1088,MCPDict,衡陽,衡陽話,湖南,衡阳,,,,湘语,,衡州片,衡阳小片,衡阳,26.900553,112.578312
1089,MCPDict,衡陽西渡,衡陽西渡(城關)話,湖南,衡阳,衡阳,西渡,,湘语,,衡州片,衡阳小片,衡阳西渡,26.978537,112.369515
1090,MCPDict,衡南洪堰,衡南洪堰話,湖南,衡阳,衡南,洪堰,,湘语,,衡州片,衡阳小片,衡南洪堰,26.715687,112.239656
1091,MCPDict,衡南茅市,衡南茅市話,湖南,衡阳,衡南,茅市,,湘语,,衡州片,衡阳小片,衡南茅市,26.698603,112.367212
1092,MCPDict,安仁,安仁話,湖南,郴州,安仁,,,赣语,,耒资片,,安仁,26.718265,113.279163
1093,MCPDict,安仁新洲,安仁新洲話,湖南,郴州,安仁,金紫仙,莲塘,赣语,,耒资片,,安仁新洲,26.442396,113.432422
1094,MCPDict,耒陽,耒陽話,湖南,衡阳,耒阳,,,赣语,,耒资片,,耒阳,26.425219,112.853951
1095,MCPDict,耒陽公平圩,耒陽公平圩話,湖南,衡阳,耒阳,公平圩,大路,赣语,,耒资片,,耒阳公平圩,26.420301,112.862862
1096,MCPDict,常寧官嶺,常寧官嶺-大堡話,湖南,衡阳,常宁,官岭、大堡,,赣语,,耒资片,,常宁官岭,26.419991,112.404124
1097,MCPDict,安仁禾市,安仁禾市話,湖南,郴州,安仁,永乐江,禾市,赣语,,耒资片,,安仁禾市,26.750729,113.206493
1098,MCPDict,安仁新渡,安仁新渡話,湖南,郴州,安仁,永乐江,新渡,赣语,,耒资片,,安仁新渡,26.743723,113.233593
1099,MCPDict,耒陽永濟,耒陽永濟話,湖南,衡阳,耒阳,永济,,赣语,,耒资片,,耒阳永济,26.6318,112.8348
1100,MCPDict,祁陽,祁陽城關話,湖南,永州,祁阳,,,湘语,,永全片,东祁小片,祁阳,26.592637,111.847131
1101,MCPDict,祁東,祁東過水坪話,湖南,衡阳,祁东,过水坪,,湘语,,永全片,东祁小片,祁东,26.66242,112.10427
1102,MCPDict,祁東白地市,祁東白地市話,湖南,衡阳,祁东,白地市,,湘语,,永全片,东祁小片,祁东白地市,26.779692,111.951373
1103,MCPDict,祁東步雲橋,祁東步雲橋話,湖南,衡阳,祁东,步云桥,,湘语,,永全片,东祁小片,祁东步云桥,26.929051,111.769646
1104,MCPDict,雙牌官話,雙牌官話,湖南,永州,双牌,,,官话,西南官话,桂柳片,湘南小片,双牌官话,25.96191,111.659967
1105,MCPDict,冷水灘,永州冷水灘官話,湖南,永州,冷水滩区,,,官话,西南官话,桂柳片,湘南小片,冷水滩,26.467744,111.598701
1106,MCPDict,東安蘆洪市,東安蘆洪市官話,湖南,永州,东安,芦洪市(旧城关),,官话,西南官话,桂柳片,湘南小片,东安芦洪市,26.622007,111.494979
1107,MCPDict,興安界首,興安界首官話,广西,桂林,兴安,界首,,官话,西南官话,桂柳片,桂北小片,兴安界首,25.733011,110.763197
1108,MCPDict,興安湘灕,興安湘灕官話,广西,桂林,兴安,湘漓,,官话,西南官话,桂柳片,桂北小片,兴安湘漓,25.617523,110.688814
1109,MCPDict,興安,興安城關官話,广西,桂林,兴安,,,官话,西南官话,桂柳片,桂北小片,兴安,25.624866,110.674778
1110,MCPDict,灌陽文市,灌陽文市官話,广西,桂林,灌阳,文市,,官话,西南官话,桂柳片,桂北小片,灌阳文市,25.682782,111.208429
1111,MCPDict,灌陽,灌陽城關官話,广西,桂林,灌阳,,,官话,西南官话,桂柳片,桂北小片,灌阳,25.495143,111.167381
1112,MCPDict,上猶社溪,上猶社溪江頭話,江西,赣州,上犹,社溪,江头,客家话,,雩信片,,上犹社溪,25.965258,114.608442
1113,MCPDict,上猶羣英,上猶羣英本地客家混合話,江西,赣州,上犹,中稍,群英,客家话,,雩信片,,上犹群英,25.739009,114.479261
1114,MCPDict,南康鏡壩,南康鏡壩話,江西,赣州,南康,镜坝,,客家话,,雩信片,,南康镜坝,25.706032,114.748716
1115,MCPDict,南康唐江,南康唐江話,江西,赣州,南康,唐江,,客家话,,雩信片,,南康唐江,25.793415,114.747332
1116,MCPDict,信豐大橋,信豐大橋話,江西,赣州,信丰,大桥,,客家话,,雩信片,,信丰大桥,25.35495,115.16007
1117,MCPDict,大庾,大庾話,江西,赣州,大余,,,客家话,,雩信片,,大庾,25.403041,114.356668
1118,MCPDict,大庾同心,大庾同心話,江西,赣州,大庾,池江,同心,客家话,,雩信片,,大庾同心,25.519052,114.553016
1119,MCPDict,南雄珠璣巷,南雄珠璣巷話,广东,韶关,南雄,珠玑,,客家话,,粤北片,,南雄珠玑巷,25.199541,114.367428
1120,MCPDict,仁化聞韶,仁化聞韶話,广东,韶关,仁化,闻韶,,客家话,,粤北片,,仁化闻韶,25.143103,113.898833
1121,MCPDict,仁化長江,仁化長江話,广东,韶关,仁化,长江,,客家话,,粤北片,,仁化长江,25.336625,113.928202
1122,MCPDict,汝城,汝城話,湖南,郴州,汝城,土桥,,客家话,,铜桂片,,汝城,25.583859,113.721609
1123,MCPDict,龍門路溪,龍門路溪話,广东,惠州,龙门,路溪,,客家话,,粤台片,梅惠小片,龙门路溪,23.560053,114.280045
1124,MCPDict,博羅,博羅本地話,广东,惠州,博罗,,,客家话,,粤台片,梅惠小片,博罗,23.175536,114.284892
1125,MCPDict,龍川佗城,龍川佗城話,广东,河源,龙川,佗城,,客家话,,粤台片,龙华小片,龙川佗城,24.06252,115.19315
1126,MCPDict,深圳坪東,深圳坪東蛇話,广东,深圳,坪山,坪地,坪东,粤语,,广府片,,深圳坪东,22.772543,114.320681
1127,MCPDict,海豐鵝埠,海豐鵝埠占米話,广东,汕尾,海丰,鹅埠,,粤语,,广府片,,海丰鹅埠,22.831629,115.010124
1128,MCPDict,鶴山雅瑤,鶴山雅瑤話（下坊話）,广东,江门,鹤山,雅瑶,黄洞,粤语,,四邑片,,鹤山雅瑶,22.718779,113.015144
1129,MCPDict,鶴山沙坪,鶴山沙坪話（上坊話）,广东,江门,鹤山,沙坪,,粤语,,四邑片,,鹤山沙坪,22.78121,112.980593
1130,MCPDict,台山台城,台山台城話,广东,江门,台山,台城,,粤语,,四邑片,,台山台城,22.251372,112.79397
1131,MCPDict,台山斗山墟,台山斗山墟話,广东,江门,台山,斗山,斗山墟,粤语,,四邑片,,台山斗山墟,22.067317,112.844641
1132,MCPDict,開平護龍,開平赤磡江南話,广东,江门,开平,赤磡,护龙,粤语,,四邑片,,开平护龙,22.309968,112.625907
1133,MCPDict,江門荷塘(上),江門荷塘上邊話(唐溪),广东,江门,蓬江,荷塘,白籐,粤语,,四邑片,,江门荷塘(上),22.659175,113.143287
1134,MCPDict,江門荷塘(下),江門荷塘下邊話(篁灣),广东,江门,蓬江,荷塘,荷塘墟,粤语,,四邑片,,江门荷塘(下),22.672725,113.138426
1135,MCPDict,江門水南,江門水南本地話,广东,江门,蓬江,白沙(原堤东),山下,粤语,,四邑片,,江门水南,22.591945,113.096179
1136,MCPDict,江門白沙,江門白沙本地話,广东,江门,蓬江,白沙(原沙仔尾),陈屋,粤语,,四邑片,,江门白沙,22.571389,113.075225
1137,MCPDict,江門紫萊,江門紫萊本地話,广东,江门,蓬江,白沙(原沙仔尾),佛子坳,粤语,,四邑片,,江门紫莱,22.590558,113.080862
1138,MCPDict,江門沙仔尾,江門沙仔尾本地話,广东,江门,蓬江,白沙(原沙仔尾),沙地,粤语,,四邑片,,江门沙仔尾,22.567289,113.084173
1139,MCPDict,新會天湖,新會羅坑天湖蓢話,广东,江门,新会,罗坑,天湖蓢,粤语,,四邑片,,新会天湖,22.414015,112.926593
1140,MCPDict,新會羅坑,新會羅坑話,广东,江门,新会,罗坑,下沙,粤语,,四邑片,,新会罗坑,22.467249,112.929261
1141,MCPDict,開平沙塘,開平沙塘話（健豐）,广东,江门,开平,沙塘,健丰,粤语,,四邑片,,开平沙塘,22.305053,112.614739
1142,MCPDict,開平蒼城,開平蒼城話,广东,江门,开平,苍城,,粤语,,四邑片,,开平苍城,22.481217,112.563472
1143,MCPDict,恩平恩城,恩平恩城話,广东,江门,恩平,恩城,,粤语,,四邑片,,恩平恩城,22.188701,112.31041
1144,MCPDict,新會會城,新會會城話,广东,江门,新会,会城,,粤语,,四邑片,,新会会城,22.607202,113.037819
1145,MCPDict,江門墟頂,江門市區話（墟頂）,广东,江门,蓬江,白沙(原仓后),墟顶,粤语,,四邑片,,江门墟顶,22.578129,113.091397
1146,MCPDict,深圳南頭,深圳南頭話,广东,深圳,南山,南头,,粤语,,广府片,,深圳南头,22.539208,113.913637
1147,MCPDict,深圳沙井,深圳沙井話,广东,深圳,宝安,沙井,,粤语,,广府片,,深圳沙井,22.735799,113.805482
1148,MCPDict,深圳西鄕,深圳西鄕話,广东,深圳,宝安,西鄕,,粤语,,广府片,,深圳西鄕,22.583863,113.879081
1149,MCPDict,東莞麻涌,東莞麻涌話,广东,东莞,/,麻涌,,粤语,,广府片,,东莞麻涌,23.051069,113.580788
1150,MCPDict,東莞沙田,東莞沙田話,广东,东莞,/,沙田,,粤语,,广府片,,东莞沙田,22.925701,113.624651
1151,MCPDict,東莞虎門,東莞虎門話,广东,东莞,/,虎门,,粤语,,广府片,,东莞虎门,22.820851,113.678872
1152,MCPDict,東莞長安,東莞長安話,广东,东莞,/,长安,,粤语,,广府片,,东莞长安,22.815252,113.802483
1153,MCPDict,東莞厚街,東莞厚街話,广东,东莞,/,厚街,,粤语,,广府片,,东莞厚街,22.936556,113.670891
1154,MCPDict,東莞塘廈,東莞塘廈話,广东,东莞,/,塘厦,,粤语,,广府片,,东莞塘厦,22.80706,114.072563
1155,MCPDict,東莞謝崗,東莞謝崗話,广东,东莞,/,谢岗,,粤语,,广府片,,东莞谢岗,22.961439,114.148781
1156,MCPDict,東莞橋頭,東莞橋頭話,广东,东莞,/,桥头,,粤语,,广府片,,东莞桥头,23.030233,114.110968
1157,MCPDict,東莞黃江,東莞黃江話,广东,东莞,/,黄江,,粤语,,广府片,,东莞黄江,22.922025,114.009998
1158,MCPDict,東莞橫瀝,東莞橫瀝話,广东,东莞,/,横沥,,粤语,,广府片,,东莞横沥,23.018972,113.966492
1159,MCPDict,東莞企石,東莞企石話,广东,东莞,/,企石,,粤语,,广府片,,东莞企石,23.079075,114.028973
1160,MCPDict,東莞常平,東莞常平話,广东,东莞,/,常平,,粤语,,广府片,,东莞常平,22.981577,113.998921
1161,MCPDict,東莞大朗,東莞大朗話,广东,东莞,/,大朗,,粤语,,广府片,,东莞大朗,22.940161,113.943924
1162,MCPDict,東莞東坑,東莞東坑話,广东,东莞,/,东坑,,粤语,,广府片,,东莞东坑,22.99588,113.934036
1163,MCPDict,東莞石排,東莞石排話,广东,东莞,/,石排,,粤语,,广府片,,东莞石排,23.08922,113.939972
1164,MCPDict,東莞塘角,東莞茶山塘角話,广东,东莞,/,茶山,塘角,粤语,,广府片,,东莞塘角,23.088579,113.900331
1165,MCPDict,東莞茶山,東莞茶山話,广东,东莞,/,茶山,,粤语,,广府片,,东莞茶山,23.083319,113.876358
1166,MCPDict,東莞寮步,東莞寮步話,广东,东莞,/,寮步,,粤语,,广府片,,东莞寮步,23.003735,113.881138
1167,MCPDict,東莞東城,東莞東城話,广东,东莞,/,东城,,粤语,,广府片,,东莞东城,23.034095,113.789745
1168,MCPDict,東莞石龍,東莞石龍話,广东,东莞,/,石龙,,粤语,,广府片,,东莞石龙,23.105841,113.87426
1169,MCPDict,東莞石碣,東莞石碣話,广东,东莞,/,石碣,,粤语,,广府片,,东莞石碣,23.099331,113.813248
1170,MCPDict,東莞髙埗,東莞髙埗話,广东,东莞,/,髙埗,,粤语,,广府片,,东莞髙埗,23.09099,113.745903
1171,MCPDict,東莞中堂,東莞中堂話,广东,东莞,/,中堂,,粤语,,广府片,,东莞中堂,23.098774,113.663624
1172,MCPDict,東莞洪梅,東莞洪梅話,广东,东莞,/,洪梅,,粤语,,广府片,,东莞洪梅,23.00111,113.61551
1173,MCPDict,東莞道滘,東莞道滘話,广东,东莞,/,道滘,,粤语,,广府片,,东莞道滘,23.010235,113.68167
1174,MCPDict,東莞望牛墩,東莞望牛墩話,广东,东莞,/,望牛墩,,粤语,,广府片,,东莞望牛墩,23.05537,113.656174
1175,MCPDict,東莞萬江,東莞萬江話,广东,东莞,/,万江,,粤语,,广府片,,东莞万江,23.058598,113.708984
1176,MCPDict,東莞南城,東莞南城話,广东,东莞,/,南城,,粤语,,广府片,,东莞南城,22.98525,113.751869
1177,MCPDict,東莞莞城,東莞莞城話,广东,东莞,/,莞城,,粤语,,广府片,,东莞莞城,23.038521,113.749161
1178,MCPDict,江門,江門白話,广东,江门,蓬江,白沙(原仓后),,粤语,,广府片,,江门,22.578129,113.091397
1179,MCPDict,珠海唐家,珠海唐家話,广东,珠海,香洲,唐家湾,,粤语,,广府片,,珠海唐家,22.373525,113.575266
1180,MCPDict,中山石岐,中山石岐話,广东,中山,石岐,,,粤语,,广府片,,中山石岐,22.542931,113.397905
1181,MCPDict,桂平,桂平白話,广西,贵港,桂平 ,,,粤语,,广府片,,桂平,23.380945,110.076327
1182,MCPDict,梧州,梧州白話,广西,梧州,,,,粤语,,广府片,,梧州,23.48261,111.285466
1183,MCPDict,南寧,南寧白話,广西,南宁,,,,粤语,,邕浔片,,南宁,22.823123,108.317204
1184,MCPDict,橫州,橫州白話,广西,南宁,横州,,,粤语,,邕浔片,,横州,22.683321,109.25759
1185,MCPDict,崇左大新,崇左大新白話,广西,崇左,大新,桃城、宝圩,,粤语,,邕浔片,,崇左大新,22.836229,107.207557
1186,MCPDict,開建,開建話,广东,肇庆,封开,南丰,,粤语,,勾漏片,,开建,23.750807,111.806362
1187,MCPDict,欽州東場,欽州東場海獺話,广西,钦州,钦南,东场,上寮,粤语,,钦廉片,,钦州东场,21.754281,108.848096
1188,MCPDict,化州下江,化州下江話,广东,茂名,化州,长崎,,粤语,,吴化片,,化州下江,21.529381,110.727686
1189,MCPDict,化州上江,化州上江話,广东,茂名,化州,河西,,粤语,,高阳片,,化州上江,21.666932,110.635287
1190,MCPDict,陽春河口,陽春河口白話,广东,阳江,阳春,河口,,粤语,,高阳片,,阳春河口,21.965086,111.681835
1191,MCPDict,桂平尋旺,桂平尋旺話,广西,贵港,桂平,寻旺,,粤语,,勾漏片,,桂平寻旺,23.385861,110.140747
1192,MCPDict,桂平社步,桂平社步白話,广西,贵港,桂平,社步,,粤语,,勾漏片,,桂平社步,23.265987,110.105223
1193,MCPDict,博白,博白地佬話,广西,玉林,博白,,,粤语,,勾漏片,,博白,22.273048,109.975985
1194,MCPDict,博白永安,博白永安地佬話,广西,玉林,博白,永安,,粤语,,勾漏片,,博白永安,22.315871,109.773122
1195,MCPDict,鬱林,鬱林話,广西,玉林,,,,粤语,,勾漏片,,郁林,22.626162,110.151843
1196,MCPDict,封川,封川話,广东,肇庆,封开,,,粤语,,勾漏片,,封川,23.424033,111.512343
1197,MCPDict,蒙山,蒙山話,广西,梧州,蒙山,,,粤语,,勾漏片,,蒙山,24.203711,110.532281
1198,MCPDict,賀州江坪,賀州南鄕江坪苗話,广西,贺州,八步,南乡,江坪,粤语,,勾漏片,,贺州江坪,24.429271,111.945873
1199,MCPDict,鐘山董家垌,鐘山董家垌話,广西,贺州,钟山,董家垌,,平话,,桂北片,,钟山董家垌,24.414669,111.333953
1200,MCPDict,富川莫家,富川梧州話（福利莫家）,广西,贺州,富川,福利,莫家,平话,,桂北片,,富川莫家,24.815049,111.351242
1201,MCPDict,江華濤墟,江華寨山話（濤墟）,湖南,永州,江华,涛墟,,湘语,,永全片,道江小片,江华涛墟,24.832907,111.51707
1202,MCPDict,南寧亭子,南寧亭子平話,广西,南宁,江南,亭子,,平话,,桂南片,,南宁亭子,22.787895,108.320381
1203,MCPDict,南寧五塘,南寧五塘四平平話,广西,南宁,兴宁,五塘,四平,平话,,桂南片,,南宁五塘,22.948501,108.589634
1204,MCPDict,連州,連州阿B聲,广东,淸远,连州,,,土话,,粤北片,,连州,24.786611,112.383779
1205,MCPDict,連州上河,連州上河阿B聲,广东,淸远,连州,连州,上河,土话,,粤北片,,连州上河,24.783661,112.374266
1206,MCPDict,連州元璧,連州元璧聲,广东,淸远,连州,龙坪,元璧,土话,,粤北片,,连州元璧,24.858992,112.449322
1207,MCPDict,連州沙坊,連州沙坊聲,广东,淸远,连州,连州,沙坊,土话,,粤北片,,连州沙坊,24.866105,112.302212
1208,MCPDict,連州豐陽,連州豐陽細蠻聲,广东,淸远,连州,丰阳,,土话,,粤北片,,连州丰阳,25.053316,112.286409
1209,MCPDict,連州西岸,連州西岸大蠻聲,广东,淸远,连州,西岸,,土话,,粤北片,,连州西岸,24.925901,112.298426
1210,MCPDict,連州保安,連州保安聲,广东,淸远,连州,保安,,土话,,粤北片,,连州保安,24.918325,112.402797
1211,MCPDict,連州星子,連州星子聲,广东,淸远,连州,星子,,土话,,粤北片,,连州星子,25.003722,112.565883
1212,MCPDict,宜州德勝,宜州德勝百姓話,广西,河池,宜州,德胜,,平话,,桂南片,,宜州德胜,24.704293,108.345439
1213,MCPDict,三江黃牌,三江黃牌六甲話,广西,柳州,三江,周坪,黄牌,平话,,桂南片,,三江黄牌,25.786872,109.612561
1214,MCPDict,臨桂四塘,臨桂四塘平話（新駱家村）,广西,桂林,临桂,四塘,新骆家,平话,,桂北片,,临桂四塘,25.163496,110.122635
1215,MCPDict,靈川巖山,靈川巖山公平話,广西,桂林,灵川,公平,岩山,平话,,桂北片,,灵川岩山,25.421864,110.161308
1216,MCPDict,靈川白田,靈川白田公平話,广西,桂林,灵川,公平,白田,平话,,桂北片,,灵川白田,25.524922,110.191105
1217,MCPDict,雁山靈口,雁山靈口土話,广西,桂林,雁山,大埠,李汕坪,平话,,桂北片,,雁山灵口,25.007894,110.347581
1218,MCPDict,陽朔城關,陽朔城關土話,广西,桂林,阳朔,阳朔,,平话,,桂北片,,阳朔城关,24.778024,110.500021
1219,MCPDict,陽朔鳳樓,陽朔髙田鳳樓土話,广西,桂林,阳朔,高田,凤楼,平话,,桂北片,,阳朔凤楼,24.736409,110.49403
1220,MCPDict,泉州,泉州話,福建,泉州,,,,闽语,,闽南片,泉漳小片,泉州,24.908853,118.589421
1221,MCPDict,晉江,晉江話,福建,泉州,晋江,,,闽语,,闽南片,泉漳小片,晋江,24.818064,118.57205
1222,MCPDict,南安,南安話,福建,泉州,南安,,,闽语,,闽南片,泉漳小片,南安,24.963392,118.384285
1223,MCPDict,泉港,泉港話,福建,泉州,泉港,,,闽语,,闽南片,泉漳小片,泉港,25.13258,118.912656
1224,MCPDict,蒼南靈溪,蒼南靈溪話,浙江,温州,苍南,灵溪,,闽语,,闽南片,泉漳小片,苍南灵溪,27.509754,120.408786
1225,MCPDict,華安髙安,華安髙安話,福建,漳州,华安,髙安,,闽语,,闽南片,泉漳小片,华安髙安,24.85293,117.39993
1226,MCPDict,長泰,長泰話,福建,漳州,长泰,,,闽语,,闽南片,泉漳小片,长泰,24.628416,117.754191
1227,MCPDict,漳浦,漳浦話,福建,漳州,漳浦,,,闽语,,闽南片,泉漳小片,漳浦,24.120234,117.608851
1228,MCPDict,雲霄,雲霄話,福建,漳州,云霄,,,闽语,,闽南片,泉漳小片,云霄,23.96039,117.335047
1229,MCPDict,詔安,詔安話,福建,漳州,诏安,,,闽语,,闽南片,泉漳小片,诏安,23.718907,117.181986
1230,MCPDict,贛縣安平,贛縣安平話,江西,赣州,赣县,江口,安平,闽语,,闽南片,泉漳小片,赣县安平,25.970105,115.158231
1231,MCPDict,惠陽淡水,惠陽淡水福佬話,广东,惠州,惠阳,淡水,,闽语,,闽南片,泉漳小片,惠阳淡水,22.796395,114.4339
1232,MCPDict,羅定漳州話,羅定漳州話,广东,云浮,罗定,*散居,,闽语,,闽南片,泉漳小片,罗定漳州话,22.692587,111.485136
1233,MCPDict,龍巖,龍巖話,福建,龙岩,,,,闽语,,闽南片,泉漳小片,龙岩,25.089336,117.026607
1234,MCPDict,漳平,漳平話,福建,龙岩,漳平,菁城,,闽语,,闽南片,泉漳小片,漳平,25.296006,117.421464
1235,MCPDict,漳平永福,漳平永福話,福建,龙岩,漳平,永福,,闽语,,闽南片,泉漳小片,漳平永福,25.062577,117.313502
1236,MCPDict,大田前路話,大田前路話,福建,三明,大田,,,闽语,,闽南片,大田小片,大田前路话,25.691784,117.841102
1237,MCPDict,海豐,海豐話,广东,汕尾,海丰,,,闽语,,闽南片,潮汕小片,海丰,22.972213,115.329447
1238,MCPDict,惠來隆江,惠來隆江話,广东,揭阳,惠来,隆江,,闽语,,闽南片,潮汕小片,惠来隆江,22.983141,116.181212
1239,MCPDict,潮陽,潮陽話,广东,汕头,潮阳,,,闽语,,闽南片,潮汕小片,潮阳,23.264891,116.601572
1240,MCPDict,普寧,普寧話,广东,揭阳,普宁,,,闽语,,闽南片,潮汕小片,普宁,23.297343,116.165732
1241,MCPDict,揭陽,揭陽話,广东,揭阳,,,,闽语,,闽南片,潮汕小片,揭阳,23.553156,116.368035
1242,MCPDict,汕頭,汕頭話,广东,汕头,,,,闽语,,闽南片,潮汕小片,汕头,23.382689,116.721576
1243,MCPDict,汕頭市郊,汕頭鷗汀話,广东,汕头,,,,闽语,,闽南片,潮汕小片,汕头市郊,23.380168,116.635662
1244,MCPDict,饒平,饒平話,广东,潮州,饶平,,,闽语,,闽南片,潮汕小片,饶平,23.664123,117.003921
1245,MCPDict,鳳凰-新豐,鳳凰-新豐話,广东,潮州,饶平,新丰,,闽语,,闽南片,潮汕小片,凤凰-新丰,24.049334,116.859062
1246,MCPDict,澄海,澄海話,广东,汕头,澄海,,,闽语,,闽南片,潮汕小片,澄海,23.469407,116.751558
1247,MCPDict,澄海大新,澄海溪南鎭大新話,广东,汕头,澄海,溪南,大新,闽语,,闽南片,潮汕小片,澄海大新,23.55434,116.814312
1248,MCPDict,潮州,潮州話,广东,潮州,,,,闽语,,闽南片,潮汕小片,潮州,23.666675,116.628308
1249,MCPDict,雷州,雷州話,广东,湛江,雷州,,,闽语,,雷州片,,雷州,20.913798,110.095823
1250,MCPDict,吳川蘭石,吳川蘭石黎話,广东,湛江,吴川,兰石,,闽语,,雷州片,,吴川兰石,21.518631,110.831182
1251,MCPDict,電白龍山,電白龍山海話,广东,茂名,电白,博贺,龙山,闽语,,雷州片,,电白龙山,21.478322,111.154418
1252,MCPDict,電白霞洞,電白霞洞黎話,广东,茂名,电白,霞洞,,闽语,,雷州片,,电白霞洞,21.741698,111.118514
1253,MCPDict,海口,海口話,海南,/,海口,,,闽语,,琼文片,府城小片,海口,20.051026,110.197231
1254,MCPDict,屯昌,屯昌話,海南,/,屯昌,,,闽语,,琼文片,府城小片,屯昌,19.357376,110.109007
1255,MCPDict,三亞,三亞市區話,海南,三亚,,,,闽语,,琼文片,崖县小片,三亚,18.258736,109.516262
1256,MCPDict,仙遊,仙遊話,福建,莆田,仙游,,,闽语,,莆仙片,,仙游,25.36349,118.686836
1257,MCPDict,莆田,莆田話,福建,莆田,,,,闽语,,莆仙片,,莆田,25.455736,119.002903
1258,MCPDict,尤溪,尤溪話,福建,三明,尤溪,,,闽语,,闽东片,侯官小片,尤溪,26.175143,118.194804
1259,MCPDict,大田廣平,大田廣平話,福建,三明,大田,广平,,闽语,,闽南片,大田小片,大田广平,26.094001,117.83378
1260,MCPDict,福州,福州話,福建,福州,,,,闽语,,闽东片,侯官小片,福州,26.077495,119.291821
1261,MCPDict,福淸,福淸話,福建,福州,福淸,,,闽语,,闽东片,侯官小片,福淸,25.723732,119.379537
1262,MCPDict,古田大橋,古田大橋話,福建,宁德,古田,大桥,,闽语,,闽东片,侯官小片,古田大桥,26.619966,118.920655
1263,MCPDict,古田杉洋,古田杉洋話,福建,宁德,古田,杉洋,,闽语,,闽东片,侯官小片,古田杉洋,26.670993,119.215726
1264,MCPDict,屛南,屛南話,福建,宁德,屏南,,,闽语,,闽东片,侯官小片,屛南,26.914781,118.992593
1265,MCPDict,閩淸,閩淸話,福建,福州,闽清,,,闽语,,闽东片,福宁小片,闽淸,26.227626,118.875616
1266,MCPDict,寧德,寧德話,福建,宁德,蕉城,,,闽语,,闽东片,福宁小片,宁德,26.660221,119.526232
1267,MCPDict,寧德虎浿,寧德虎浿話,福建,宁德,蕉城,虎𬇙,,闽语,,闽东片,福宁小片,宁德虎𬇙,26.769392,119.290044
1268,MCPDict,寧德九都,寧德九都話,福建,宁德,蕉城,九都,,闽语,,闽东片,福宁小片,宁德九都,26.812785,119.477829
1269,MCPDict,周寧咸村,周寧咸村話,福建,宁德,周宁,咸村,,闽语,,闽东片,福宁小片,周宁咸村,26.941846,119.373039
1270,MCPDict,福安穆陽,福安穆陽話,福建,宁德,福安,穆阳,,闽语,,闽东片,福宁小片,福安穆阳,27.06626,119.545175
1271,MCPDict,福安,福安話,福建,宁德,福安,,,闽语,,闽东片,福宁小片,福安,27.090999,119.643362
1272,MCPDict,福鼎白琳,福鼎白琳話,福建,宁德,福鼎,白琳,,闽语,,闽东片,福宁小片,福鼎白琳,27.184865,120.179306
1273,MCPDict,壽寧,壽寧話,福建,宁德,寿宁,,,闽语,,闽东片,福宁小片,寿宁,27.459085,119.519332
1274,MCPDict,壽寧南陽,壽寧南陽話,福建,宁德,寿宁,南阳,,闽语,,闽东片,福宁小片,寿宁南阳,27.396199,119.598107
1275,MCPDict,慈谿觀海衛,慈谿觀海衛燕話,浙江,宁波,慈谿,观海卫,,闽语,,闽东片,方言岛,慈谿观海卫,30.176482,121.430857
1276,MCPDict,蒼南錢庫,蒼南錢庫蠻話,浙江,温州,苍南,钱库,,闽语,,闽东片,方言岛,苍南钱库,27.479881,120.575242
1277,MCPDict,浦城石陂,浦城石陂事,福建,南平,浦城,石陂,,闽语,,闽北片,建阳小片,浦城石陂,27.700665,118.365063
1278,MCPDict,浦城觀前,浦城觀前事,福建,南平,浦城,观前,,闽语,,闽北片,建阳小片,浦城观前,27.766467,118.533446
1279,MCPDict,崇安,崇安事,福建,南平,武夷山,崇安,,闽语,,闽北片,建阳小片,崇安,27.757133,118.029341
1280,MCPDict,建陽,建陽事,福建,南平,建阳,,,闽语,,闽北片,建阳小片,建阳,27.33508,118.115282
1281,MCPDict,建陽連墩,建陽連墩事,福建,南平,建阳,崇泰,新岭,闽语,,闽北片,建阳小片,建阳连墩,27.407055,118.143217
1282,MCPDict,建陽黃坑,建陽黃坑事,福建,南平,建阳,黄坑,,闽语,,闽北片,建阳小片,建阳黄坑,27.5762,117.658907
1283,MCPDict,松溪,松溪事,福建,南平,松溪,,,闽语,,闽北片,建瓯小片,松溪,27.530947,118.783098
1284,MCPDict,政和,政和事,福建,南平,政和,,,闽语,,闽北片,建瓯小片,政和,27.372777,118.861287
1285,MCPDict,政和鎭前,政和鎭前事,福建,南平,政和,镇前,,闽语,,闽北片,建瓯小片,政和镇前,27.246896,119.101412
1286,MCPDict,壽寧平溪,壽寧平溪蠻錘話,福建,宁德,寿宁,平溪,,闽语,,闽北片,建瓯小片,寿宁平溪,27.345262,119.337185
1287,MCPDict,建甌,建甌事,福建,南平,建瓯,,,闽语,,闽北片,建瓯小片,建瓯,27.022662,118.304981
1288,MCPDict,建甌迪口,建甌迪口事,福建,南平,建瓯,迪口,,闽语,,闽北片,建瓯小片,建瓯迪口,26.751859,118.475824
1289,MCPDict,三元,三元話,福建,三明,三元,,,闽语,,闽中片,,三元,26.267153,117.634008
1290,MCPDict,沙縣,沙縣話,福建,三明,沙县,,,闽语,,闽中片,,沙县,26.399858,117.787766
1291,MCPDict,沙縣蓋竹,沙縣蓋竹話,福建,三明,沙县,富口,盖竹,闽语,,闽中片,,沙县盖竹,26.410702,117.623524
1292,MCPDict,永安,永安話,福建,三明,永安,,,闽语,,闽中片,,永安,25.957521,117.373739
1293,MCPDict,明溪,明溪話,福建,三明,明溪,城关,,闽语,,邵将片,将乐小片,明溪,26.359355,117.196792
1294,MCPDict,順昌,順昌話,福建,三明,顺昌,,,闽语,,邵将片,将乐小片,顺昌,26.799105,117.816523
1295,MCPDict,順昌黃坑,順昌鄭坊黃坑話,福建,三明,顺昌,郑坊,黄坑,闽语,,邵将片,将乐小片,顺昌黄坑,26.689008,117.723378
1296,MCPDict,將樂,將樂話,福建,三明,将乐,,,闽语,,邵将片,将乐小片,将乐,26.731859,117.466394
1297,MCPDict,泰寧,泰寧話,福建,三明,泰宁,,,赣语,,抚广片,,泰宁,26.909784,117.181735
1298,MCPDict,邵武洪墩,邵武洪墩話,福建,南平,邵武,洪墩,,闽语,,邵将片,邵武小片,邵武洪墩,26.975475,117.674844
1299,MCPDict,邵武金坑,邵武金坑話,福建,南平,邵武,金坑,,闽语,,邵将片,邵武小片,邵武金坑,27.25058,117.19092
1300,MCPDict,邵武和平,邵武和平話,福建,南平,邵武,和平,,闽语,,邵将片,邵武小片,邵武和平,27.165672,117.308054
1301,MCPDict,邵武,邵武話,福建,南平,邵武,,,闽语,,邵将片,邵武小片,邵武,27.346696,117.498828
1302,MCPDict,光澤,光澤話,福建,南平,光泽,,,闽语,,邵将片,邵武小片,光泽,27.547337,117.342855
1303,MCPDict,光澤司前,光澤司前話,福建,南平,光泽,司前,,闽语,,邵将片,邵武小片,光泽司前,27.911139,117.535996
1304,MCPDict,光澤寨裏,光澤寨裏話,福建,南平,光泽,寨里,,闽语,,邵将片,邵武小片,光泽寨里,27.698038,117.423553
1305,MCPDict,石城小松,石城小松話,江西,赣州,石城,小松,,客家话,,宁龙片,,石城小松,26.443174,116.317643
1306,MCPDict,長汀,長汀話,福建,龙岩,长汀,,,客家话,,汀州片,,长汀,25.836529,116.352851
1307,MCPDict,連城文保,連城文保話,福建,龙岩,连城,文亨,文保,客家话,,汀州片,,连城文保,25.660462,116.769776
1308,MCPDict,連城四堡,連城四堡話,福建,龙岩,连城,四堡,四堡,客家话,,汀州片,,连城四堡,25.913059,116.711513
1309,MCPDict,連城新泉,連城新泉話,福建,龙岩,连城,新泉,,客家话,,汀州片,,连城新泉,25.354828,116.612089
1310,MCPDict,連城賴源,連城賴源話,福建,龙岩,连城,赖源,下村,客家话,,汀州片,,连城赖源,25.56071,117.006208
1311,MCPDict,龍岩松洋,龍岩萬安松洋話,福建,龙岩,新罗,万安,松洋,客家话,,汀州片,,龙岩松洋,25.506145,117.045263
1312,MCPDict,龍岩梧宅,龍岩萬安梧宅話,福建,龙岩,新罗,万安,梧宅,客家话,,汀州片,,龙岩梧宅,25.453888,116.962007
1313,MCPDict,上杭梨嶺,上杭梨嶺話,福建,龙岩,上杭,步云,梨岭,客家话,,汀州片,,上杭梨岭,25.328272,116.887869
1314,MCPDict,上杭古田,上杭古田話,福建,龙岩,上杭,古田,竹岭,客家话,,汀州片,,上杭古田,25.243446,116.834045
1315,MCPDict,武平上四鄕,武平上四鄕話,福建,龙岩,武平,东留,上四乡(封侯、新联、太阳、南方),客家话,,汀州片,,武平上四鄕,25.169807,115.995747
1316,MCPDict,永定,永定話,福建,龙岩,永定,城关,,客家话,,汀州片,,永定,24.729805,116.737543
1317,MCPDict,詔安白葉,詔安白葉話,福建,漳州,诏安,太平,白叶,客家话,,汀州片,,诏安白叶,23.89011,116.99645
1318,MCPDict,詔安霞葛,詔安霞葛話,福建,漳州,诏安,霞葛,,客家话,,汀州片,,诏安霞葛,23.98851,117.02267
1319,MCPDict,豐順,豐順話,广东,梅州,丰顺,,,客家话,,粤台片,龙华小片,丰顺,23.745523,116.188337
1320,MCPDict,臺灣海陸腔,臺灣海陸腔客語,台湾,苗栗、六堆,,,,客家话,,海陆片,,台湾海陆腔,24.902334,120.986627
1321,MCPDict,臺灣四縣腔,臺灣四縣腔客語,台湾,桃园、新竹,,,,客家话,,粤台片,梅惠小片,台湾四县腔,24.965501,121.226601
1322,MCPDict,連江小滄,連江小滄畲話,福建,福州,连江,小沧,,客家话,,畲话,,连江小沧,26.380505,119.326631
1323,MCPDict,景寧鄭坑,景寧鄭坑畲話,浙江,丽水,景宁,郑坑,,客家话,,畲话,,景宁郑坑,27.986582,119.816642
1324,MCPDict,景寧東坑,景寧東坑畲話,浙江,丽水,景宁,东坑,,客家话,,畲话,,景宁东坑,27.796109,119.721918
1325,MCPDict,貴溪樟坪,貴溪樟坪畲話,江西,鹰潭,贵溪,樟坪,,客家话,,畲话,,贵溪樟坪,27.997463,117.435903
1326,MCPDict,寧國雲梯,寧國雲梯畲話,安徽,宣城,宁国,云梯,,客家话,,畲话,,宁国云梯,30.380799,119.294259
1327,MCPDict,武寧畲話,武寧新寧畲話,江西,九江,武宁,新宁,,客家话,,畲话,,武宁畲话,29.2337,115.09928
1328,MCPDict,梅縣,梅州梅縣話,广东,梅州,梅江,,,客家话,,粤台片,梅惠小片,梅县,24.299112,116.117582
1329,MCPDict,五華橫陂,五華橫陂客家話,广东,梅州,五华,横陂,,客家话,,粤台片,龙华小片,五华横陂,23.876196,115.735515
1330,MCPDict,五華,五華水寨客家話(下側聲),广东,梅州,五华,水寨,,客家话,,粤台片,龙华小片,五华,23.924074,115.761672
1331,MCPDict,翁源周陂,翁源周陂話,广东,韶关,翁源,周陂,,客家话,,粤北片,,翁源周陂,24.252392,114.035372
1332,MCPDict,虔南大吉山,虔南大吉山話,江西,赣州,全南,大吉山,,客家话,,宁龙片,,虔南大吉山,24.605261,114.362695
1333,MCPDict,虔南竹山,虔南竹山上江聲,江西,赣州,全南,陂头,竹山,客家话,,宁龙片,,虔南竹山,24.968478,114.547998
1334,MCPDict,虔南周布,虔南周布下壩聲,江西,赣州,全南,陂头,周布,客家话,,宁龙片,,虔南周布,25.04841,114.623567
1335,MCPDict,銅鼓,銅鼓永寧客家話,江西,宜春,铜鼓,永宁,,客家话,,铜桂片,,铜鼓,28.531295,114.389641
1336,MCPDict,汝城延壽,汝城延壽話,湖南,郴州,汝城,延寿,,客家话,,铜桂片,,汝城延寿,25.444639,113.506957
1337,MCPDict,新田金陵,新田金陵客家話,湖南,郴州,新田,金陵,,客家话,,铜桂片,,新田金陵,26.017528,112.300367
1338,MCPDict,宜章東風客家,宜章東風客家話,湖南,郴州,宜章,东风,新田,客家话,,铜桂片,,宜章东风客家,25.065401,112.745513
1339,MCPDict,富川白沙,富川白沙客家話,广西,富川,白沙,白沙街,,客家话,,铜桂片,,富川白沙,24.652514,111.409949
1340,MCPDict,東莞大嶺山,東莞大嶺山客家話,广东,东莞,/,大岭山,连平,客家话,,粤台片,梅惠小片,东莞大岭山,22.935486,113.811649
1341,MCPDict,東莞鳳崗,東莞鳳崗客家話,广东,东莞,/,凤岗,竹塘,客家话,,粤台片,梅惠小片,东莞凤岗,22.761878,114.150149
1342,MCPDict,東莞淸溪,東莞淸溪客家話,广东,东莞,/,清溪,三星,客家话,,粤台片,梅惠小片,东莞淸溪,22.850317,114.171051
1343,MCPDict,東莞樟木頭,東莞樟木頭客家話,广东,东莞,/,樟木头,百果洞,客家话,,粤台片,梅惠小片,东莞樟木头,22.913475,114.059998
1344,MCPDict,蒙山程村,蒙山程村客家話,广西,梧州,蒙山,蒙山,北楼,客家话,,方言岛,,蒙山程村,24.226131,110.499152
1345,MCPDict,洵陽寨子溝口,洵陽寨子溝口客家話,陕西,安康,旬阳,小河,寨子沟口,客家话,,方言岛,,洵阳寨子沟口,33.148418,109.306831
1346,MCPDict,邵陽石灘,邵陽石灘平話,湖南,邵阳,邵阳,岩口铺,石滩,土话,,湘南片,,邵阳石滩,27.265188,111.274518
1347,MCPDict,通道菁蕪洲,通道菁蕪洲本地話(四里話),湖南,怀化,通道,菁芜洲,,土话,,湘南片,,通道菁芜洲,26.267281,109.733813
1348,MCPDict,桂陽四里,桂陽四里土話,湖南,郴州,桂阳,四里,,土话,,湘南片,,桂阳四里,25.94354,112.349749
1349,MCPDict,桂陽歐陽海,桂陽歐陽海土話,湖南,郴州,桂阳,欧阳海,尹坪,土话,,湘南片,,桂阳欧阳海,25.973294,112.493232
1350,MCPDict,桂陽敖泉,桂陽敖泉土話,湖南,郴州,桂阳,敖泉,,土话,,湘南片,,桂阳敖泉,25.931732,112.587761
1351,MCPDict,永興樟樹,永興樟樹話,湖南,郴州,永兴,樟树,,赣语,,耒资片,,永兴樟树,26.388446,113.216162
1352,MCPDict,永興柏林,1935永興柏林話,湖南,郴州,永兴,柏林,,赣语,,耒资片,,永兴柏林,26.345273,113.290274
1353,MCPDict,永興,永興話,湖南,郴州,永兴,,,赣语,,耒资片,,永兴,26.122851,113.121448
1354,MCPDict,永興馬田,永興馬田梓木話,湖南,郴州,永兴,马田,梓木,赣语,,耒资片,,永兴马田,26.144793,112.996912
1355,MCPDict,永興悅來,永興悅來話,湖南,郴州,永兴,悦来,,赣语,,耒资片,,永兴悦来,26.120411,112.833996
1356,MCPDict,資興,資興事,湖南,郴州,资兴,兴寜（旧城关）,,赣语,,耒资片,,资兴,25.9649,113.40912
1357,MCPDict,資興南鄕,資興南鄕土話（滁口塘壪）,湖南,郴州,资兴,滁口,塘塆,赣语,,耒资片,,资兴南鄕,25.651566,113.376246
1358,MCPDict,宜章赤石,宜章赤石平聲,湖南,郴州,宜章,赤石,,土话,,湘南片,,宜章赤石,25.518266,113.181545
1359,MCPDict,宜章梅田,宜章梅田平事,湖南,郴州,宜章,梅田,,土话,,湘南片,,宜章梅田,25.330091,112.823192
1360,MCPDict,宜章巖泉,宜章巖泉事,湖南,郴州,宜章,岩泉,,土话,,湘南片,,宜章岩泉,25.187055,112.912188
1361,MCPDict,樂昌皈塘,樂昌皈塘聲,广东,韶关,乐昌,坪石,皈塘,土话,,粤北片,,乐昌皈塘,25.341138,113.076166
1362,MCPDict,樂昌三溪,樂昌三溪事,广东,韶关,乐昌,三溪,,土话,,粤北片,,乐昌三溪,25.287267,112.883091
1363,MCPDict,樂昌黃圃,樂昌黃圃聲,广东,韶关,乐昌,黄圃,,土话,,粤北片,,乐昌黄圃,25.445082,113.185748
1364,MCPDict,臨武,臨武街頭話,湖南,郴州,临武,,,土话,,湘南片,,临武,25.275948,112.564394
1365,MCPDict,臨武楚江,臨武楚江土話,湖南,郴州,临武,楚江,晓言塘,土话,,湘南片,,临武楚江,25.375832,112.476183
1366,MCPDict,臨武大沖,臨武大沖土話,湖南,郴州,临武,大冲,,土话,,湘南片,,临武大冲,25.407088,112.673273
1367,MCPDict,臨武土地,臨武土地土話,湖南,郴州,临武,土地,,土话,,湘南片,,临武土地,25.353937,112.660613
1368,MCPDict,藍山塔峯,藍山城關（塔峯）土話,湖南,永州,蓝山,塔峰,,土话,,湘南片,,蓝山塔峰,25.377502,112.202284
1369,MCPDict,藍山竹管寺,藍山竹管寺土話,湖南,永州,蓝山,竹管寺,,土话,,湘南片,,蓝山竹管寺,25.439743,112.191332
1370,MCPDict,藍山太平,藍山太平土話（唐姓）,湖南,永州,蓝山,太平圩,,土话,,湘南片,,蓝山太平,25.475586,112.354712
1371,MCPDict,嘉禾城關,嘉禾城關土話,湖南,郴州,嘉禾,珠泉（今城关）,,土话,,湘南片,,嘉禾城关,25.597033,112.374491
1372,MCPDict,嘉禾普滿,嘉禾普滿土話,湖南,郴州,嘉禾,普满,,土话,,湘南片,,嘉禾普满,25.697045,112.528542
1373,MCPDict,新田茂家,新田南鄕土話（茂家）,湖南,永州,新田,茂家,罗溪,湘语,,永全片,道江小片,新田茂家,25.834445,112.218549
1374,MCPDict,新田三井,新田南鄕土話（三井）,湖南,永州,新田,三井,,湘语,,永全片,道江小片,新田三井,25.79725,112.225559
1375,MCPDict,新田毛里,新田北鄕土話（毛里）,湖南,永州,新田,毛里,,土话,,湘南片,,新田毛里,25.862121,112.159371
1376,MCPDict,桂林平山,桂林平山土話,广西,桂林,象山,平山,,平话,,桂北片,,桂林平山,25.232691,110.292558
1377,MCPDict,桂林東邊洲,桂林穿山東邊洲土話,广西,桂林,七星,穿山,东边洲,平话,,桂北片,,桂林东边洲,25.247662,110.322621
1378,MCPDict,桂林陽家,桂林二塘陽家土話,广西,桂林,象山,二塘,阳家,平话,,桂北片,,桂林阳家,25.197746,110.303289
1379,MCPDict,桂林紅光,桂林二塘紅光土話,广西,桂林,象山,二塘,红光,平话,,桂北片,,桂林红光,25.210432,110.293831
1380,MCPDict,桂林矮山塘,桂林甲山矮山塘土話,广西,桂林,秀峰,甲山,矮山塘,平话,,桂北片,,桂林矮山塘,25.329592,110.298257
1381,MCPDict,桂林船上話,桂林船上話,广西,桂林,七星,七星,施家园,平话,,桂北片,,桂林船上话,25.270781,110.310754
1382,MCPDict,桂林歐家,桂林朝陽歐家村土話,广西,桂林,七星,朝阳,西南村,平话,,桂北片,,桂林欧家,25.267899,110.348449
1383,MCPDict,靈川古東,靈川古東平話,广西,桂林,灵川,古东,,平话,,桂北片,,灵川古东,25.118222,110.452462
1384,MCPDict,靈川髙橋,靈川髙橋平話,广西,桂林,灵川,大圩,髙桥,平话,,桂北片,,灵川髙桥,25.210713,110.442135
1385,MCPDict,靈川毛村,靈川毛村話,广西,桂林,灵川,大圩,毛村,平话,,桂北片,,灵川毛村,25.207077,110.404633
1386,MCPDict,靈川三街,靈川三街平話,广西,桂林,灵川,三街,,平话,,桂北片,,灵川三街,25.472697,110.397102
1387,MCPDict,靈川雍田,靈川雍田平話,广西,桂林,灵川,灵川,雍田,平话,,桂北片,,灵川雍田,25.442586,110.338949
1388,MCPDict,靈川定江,靈川定江平話,广西,桂林,灵川,定江,定江,平话,,桂北片,,灵川定江,25.340847,110.310982
1389,MCPDict,桂林大河,桂林大河上楊家土話,广西,桂林,叠彩,大河,上杨家,平话,,桂北片,,桂林大河,25.327565,110.350396
1390,MCPDict,靈川蘭田,靈川蘭田話,广西,桂林,灵川,兰田,两合,平话,,桂北片,,灵川兰田,25.630378,110.188271
1391,MCPDict,靈川茆江,靈川潮田茆江麻山話,广西,桂林,灵川,潮田,南圩,平话,,桂北片,,灵川茆江,25.073858,110.512772
1392,MCPDict,全州廟頭,全州廟頭土話,广西,桂林,全州,庙头,,湘语,,永全片,全资小片,全州庙头,26.179527,111.23118
1393,MCPDict,全州文橋,全州文橋土話,广西,桂林,全州,文桥,江头,湘语,,永全片,全资小片,全州文桥,26.223584,111.182699
1394,MCPDict,全州黃沙河,全州黃沙河土話,广西,桂林,全州,黄沙河,麻川,湘语,,永全片,全资小片,全州黄沙河,26.122178,111.189345
1395,MCPDict,東安石期市,東安石期市土話,湖南,永州,东安,石期市,,湘语,,永全片,东祁小片,东安石期市,26.275505,111.444825
1396,MCPDict,東安花橋,東安花橋土話,湖南,永州,东安,花桥,,湘语,,永全片,东祁小片,东安花桥,26.747401,111.471988
1397,MCPDict,永州杉木橋,永州杉木橋土話,湖南,永州,冷水滩区,普利桥,杉木桥,湘语,,永全片,东祁小片,永州杉木桥,26.731911,111.656742
1398,MCPDict,永州嵐角山,永州嵐角山土話,湖南,永州,冷水滩区,岚角山,,湘语,,永全片,东祁小片,永州岚角山,26.335445,111.645711
1399,MCPDict,新寧麻林,新寧麻林苗族峒話,湖南,邵阳,新宁,麻林,,土话,,湘南片,,新宁麻林,26.462308,110.649636
1400,MCPDict,綏寧關峽,綏寧關峽苗族平話,湖南,邵阳,绥宁,关峡,,土话,,湘南片,,绥宁关峡,26.577922,110.283919
1401,MCPDict,資源延東,資源延東直話,广西,桂林,资源,延东,,湘语,,永全片,全资小片,资源延东,26.029027,110.671726
1402,MCPDict,資源瓜里土話,資源瓜里土話,湖南,桂林,资源,瓜里,,湘语,,永全片,全资小片,资源瓜里土话,26.2015,110.650232
1403,MCPDict,寧遠柏家坪,寧遠北路平話（柏家坪垻子頭）,湖南,永州,宁远,柏家坪,坝子头,土话,,湘南片,,宁远柏家坪,25.798791,111.994213
1404,MCPDict,寧遠中和,寧遠西路平話（中和嶺頭）,湖南,永州,宁远,中和,岭头,土话,,湘南片,,宁远中和,25.754645,111.865664
1405,MCPDict,寧遠文廟,寧遠南路平話（文廟）,湖南,永州,宁远,文庙,,土话,,湘南片,,宁远文庙,25.601868,111.948214
1406,MCPDict,寧遠灣井,寧遠南路平話（灣井路亭、下灌馬腳洞）,湖南,永州,宁远,湾井路亭、下灌马脚洞,,土话,,湘南片,,宁远湾井,25.455583,112.009032
1407,MCPDict,雙牌江村,雙牌江村土話,湖南,永州,双牌,江村,,湘语,,永全片,道江小片,双牌江村,25.740925,111.724569
1408,MCPDict,雙牌理家坪,雙牌理家坪土話,湖南,永州,双牌,理家坪,,湘语,,永全片,道江小片,双牌理家坪,25.663883,111.668369
1409,MCPDict,雙牌打鼓坪,雙牌打鼓坪土話,湖南,永州,双牌,打鼓坪,,湘语,,永全片,道江小片,双牌打鼓坪,25.720945,111.607965
1410,MCPDict,道縣小甲,道縣白芒鋪小甲土話,湖南,永州,道县,白芒铺,小甲,湘语,,永全片,道江小片,道县小甲,25.482697,111.733287
1411,MCPDict,道縣梅花,道縣梅花土話,湖南,永州,道县,梅花,,湘语,,永全片,道江小片,道县梅花,25.614821,111.60826
1412,MCPDict,道縣壽雁,道縣壽雁平話,湖南,永州,道县,寿雁,,湘语,,永全片,道江小片,道县寿雁,25.585393,111.507622
1413,MCPDict,道縣仙子腳,道縣仙子腳土話,湖南,永州,道县,仙子脚,,湘语,,永全片,道江小片,道县仙子脚,25.651199,111.387988
1414,MCPDict,江永上江墟,江永上江墟土話（女書）,湖南,永州,江永,上江墟,,湘语,,永全片,道江小片,江永上江墟,25.348593,111.453042
1415,MCPDict,江永瀟浦,江永瀟浦(城關)土話,湖南,永州,江永,,,湘语,,永全片,道江小片,江永潇浦,25.267696,111.363949
1416,MCPDict,江永黃甲嶺,江永黃甲嶺土話,湖南,永州,江永,黄甲岭,,湘语,,永全片,道江小片,江永黄甲岭,25.202781,111.423262
1417,MCPDict,江永桃川,江永桃川土話,湖南,永州,江永,桃川,,湘语,,永全片,道江小片,江永桃川,25.115927,111.113728
1418,MCPDict,江華粟米塘,江華粟米塘七都話,湖南,永州,江华,大路铺,粟米塘,湘语,,永全片,道江小片,江华粟米塘,25.095449,111.545557
1419,MCPDict,江華河路口,江華河路口平地瑤七都話,湖南,永州,江华,河路口,拔干头、老车,湘语,,永全片,道江小片,江华河路口,24.742284,111.500289
1420,MCPDict,富川麥嶺,富川麥嶺上八都話,广西,贺州,富川,麦岭,村头岗,平话,,桂北片,,富川麦岭,25.063271,111.333364
1421,MCPDict,富川葛坡,富川葛坡下八都話,广西,贺州,富川,葛坡,,平话,,桂北片,,富川葛坡,24.953194,111.286274
1422,MCPDict,富川周臺垻,富川新華周臺垻七都話,广西,贺州,富川,新华,周台坝,平话,,桂北片,,富川周台坝,24.820722,111.414648
1423,MCPDict,富川新華,富川新華平地瑤話,广西,贺州,富川,新华,,平话,,桂北片,,富川新华,24.836114,111.426275
1424,MCPDict,恭城直話,恭城直話,广西,桂林,恭城,栗木,大合,平话,,桂北片,,恭城直话,25.125551,110.918647
1425,MCPDict,沅陵深溪口,沅陵深溪口鄕話,湖南,怀化,沅陵,深溪口,,乡话,,,,沅陵深溪口,28.57872,110.456115
1426,MCPDict,沅陵麻溪鋪,沅陵麻溪鋪鄕話,湖南,怀化,沅陵,麻溪铺,,乡话,,,,沅陵麻溪铺,28.306212,110.347796
1427,MCPDict,沅陵棋坪,沅陵二酉棋坪鄕話,湖南,怀化,沅陵,二酉,棋坪,乡话,,,,沅陵棋坪,28.433333,110.183333
1428,MCPDict,沅陵淸水坪,沅陵二酉淸水坪鄕話,湖南,怀化,沅陵,二酉,淸水坪,乡话,,,,沅陵淸水坪,28.527468,110.210252
1429,MCPDict,沅陵丑溪口,沅陵丑溪口鄕話,湖南,怀化,沅陵,丑溪口,,乡话,,,,沅陵丑溪口,28.349129,110.302227
1430,MCPDict,沅陵渭溪,沅陵渭溪鄕話,湖南,怀化,沅陵,渭溪,,乡话,,,,沅陵渭溪,28.247778,110.563611
1431,MCPDict,古丈髙峯,古丈髙峯鄕話,湖南,湘西,古丈,髙峰,,乡话,,,,古丈髙峰,28.666252,110.17844
1432,MCPDict,瀘溪梁家潭,瀘溪梁家潭鄕話,湖南,湘西,泸溪,梁家潭,,乡话,,,,泸溪梁家潭,28.336973,110.037483
1433,MCPDict,瀘溪八什坪,瀘溪八什坪鄕話,湖南,湘西,泸溪,八什坪,,乡话,,,,泸溪八什坪,28.367784,110.068996
1434,MCPDict,瀘溪,瀘溪白沙(城關)鄕話,湖南,湘西,泸溪,白沙(今武溪),,乡话,,,,泸溪,28.222147,110.209088
1435,MCPDict,漵浦木溪,漵浦木溪鄕話,湖南,怀化,溆浦,木溪,,乡话,,,,溆浦木溪,28.092222,110.588611
1436,MCPDict,龍勝蕨枝坪,龍勝偉江甘甲蕨枝坪鄕話,广西,桂林,龙胜,伟江,甘甲,乡话,,,,龙胜蕨枝坪,26.159686,110.104682
1437,MCPDict,湘潭楠竹山,湘潭楠竹山江南話方言島（廠話）,湖南,湘潭,湘潭县,楠竹山,,官话,西南官话,湖广片,鄂中小片,湘潭楠竹山,27.852201,112.672314
1438,MCPDict,景洪橄欖壩,景洪勐罕國營橄欖壩話（廠話）,云南,西双版纳,景洪,勐罕,,湘语,,永全片,方言岛,景洪橄榄坝,22.000143,100.771679
1439,zhongguoyuyan,06K06,菏泽曹县,山东,菏泽市,曹县,,磐石街道办事处,官话,中原官话,兖菏片,,菏泽曹县,34.8,115.50833333333334
